Country,City,Company_name,Type,latitude,longitude
Germany,Musterhausen,Beendet,Leguminous vegetables,51.47339,6.97502
Italy,Montevarchi,Casilli l. & figlio,Leguminous vegetables,43.5213,11.5685
Italy,Latina,San carlo,Leguminous vegetables,41.4627,12.9053
Italy,Scafati,Izzo umberto,Leguminous vegetables,40.7482,14.5283
Poland,Krakow,Fht tracking,Leguminous vegetables,50.0605,19.9324
Turkey,Gaziantep,Şanligazi,Leguminous vegetables,37.0625,37.3751
Turkey,Istanbul,Maruf kuruyemişleri,Leguminous vegetables,41.062,28.9888
Turkey,Giresun,Özkul ticaret,Leguminous vegetables,40.9152,38.383
Poland,Krakow,Fht tracking,Leguminous vegetables,50.0605,19.9324
Poland,Tomaszow lubelski,Ppz sława sp.z o.o,Leguminous vegetables,50.45274,23.41892
Germany,Remagen,Imarti naturkost gmbh&co.kg,Leguminous vegetables,50.58,7.22411
Spain,Tudela-navarra,"Alimentos sanygran, s.l.",Leguminous vegetables,42.06207,-1.6031
Poland,Telatyn,Szarek- purchase and sale of agricultural crops,Leguminous vegetables,50.52717,23.8441
France,Saint claude,Les producteurs de guadeloupe,Tropical Fruits,46.3929,5.86449
France,Capesterre belle eau,Soc agricole de fonds cacao sa,Tropical Fruits,16.0521,-61.566
France,Macouba,Exploitation agricole macouba,Tropical Fruits,14.877,-61.1398
Turkey,Istanbul,Beşir,Tropical Fruits,41.062,28.9888
France,Paris,Moodz,Tropical Fruits,48.8572,2.34141
Spain,Callosa d´en sarria,"Nisperos el tossal, s.l.u.",Tropical Fruits,38.6503,-0.12087
Egypt,Alexandrie,Grand pa farms,Tropical Fruits,44.9072,8.61156
Egypt,Alexandria,E.g.farm,Tropical Fruits,31.2105,29.9125
Morocco,Casablanca,Groupehadixl,Tropical Fruits,33.5966,-7.61889
Peru,Lima,Fe international del peru eirl,Tropical Fruits,-12.0561,-77.0268
Turkey,Istanbul,Panax toptan saticiligi ltd sti,Tropical Fruits,41.062,28.9888
Italy,Milano,Piazza affari,Tropical Fruits,45.468,9.18178
Peru,Lima,Corporacion pacifico trading sac,Tropical Fruits,-12.0561,-77.0268
Italy,Milano,Ortopiazzolla srl,Tropical Fruits,45.468,9.18178
Peru,Lima,Natper sac,Tropical Fruits,-12.0561,-77.0268
Spain,Torre del mar,Martin f,Tropical Fruits,36.74424,-4.08952
Turkey,Istanbul,Beşir,Tropical Fruits,41.062,28.9888
Morocco,Tetouan,Nagata logistic,Tropical Fruits,35.5779,-5.35671
Spain,El ejido (almeria),"Comprarbien, c.b.",Tropical Fruits,36.77268,-2.81762
Morocco,Fkih ben salah,Sociedad izquierdo,Tropical Fruits,34.4115,-2.89878
Spain,Albacete,Pedro yaranga,Tropical Fruits,38.9979,-1.85292
Peru,Lima,Big trading eirl,Tropical Fruits,-12.0561,-77.0268
Spain,Granada,Tierra del sur gestion y servicio s.l.,Tropical Fruits,12.0521,-61.754
Turkey,Iskenderun,Salkim bio tarim urunleri gida ith ihr san  ve tic ltd sti,Tropical Fruits,36.5836,36.1688
Egypt,Assuit,Altarekcompany,Tropical Fruits,30.0923,31.3348
Italy,Lanciano,Azienda agricola di pietro florindo,Tropical Fruits,42.23057,14.39064
Spain,San vicente del raspeig,Sonbio export and import s.l.,Tropical Fruits,38.39827,-0.52322
Spain,Ribadumia - pontevedra,Kiwi atlántico,Tropical Fruits,42.5014,-8.76835
Italy,Roma,Desae',Tropical Fruits,41.9032,12.4957
Italy,Fiumefreddo,Mango vivai,Tropical Fruits,38.18623,15.54014
Spain,Las palmas,"Negami.a.g,s.l",Tropical Fruits,28.1303,-15.4397
France,Canejan,Comptoir des produits vanillés et dérivés,Tropical Fruits,44.76335,-0.65416
Peru,Piura,Ecosaic sac,Tropical Fruits,-5.19219,-80.6283
Turkey,Izmir,Aksema tarim gida,Tropical Fruits,38.4262,27.1419
Peru,Peru,Jolmar fruit export sac,Tropical Fruits,-12.0561,-77.0268
France,Rungis cedex,Cofida - cie financière distribution alimentaire,Tropical Fruits,48.7492,2.35141
Peru,Piura,F & f sandoval sac,Tropical Fruits,-5.19219,-80.6283
Spain,Madrid,Gen group corp.,Tropical Fruits,40.4196,-3.69196
Spain,Vilanovai la geltru,Fruit cloud s.l,Tropical Fruits,41.22112,1.72702
Italy,Milano,Eden della frutta,Tropical Fruits,45.468,9.18178
France,Fresnes,Sodepex-inter,Tropical Fruits,48.7571,2.3212
Italy,Spinetoli,Viento tropical srl,Tropical Fruits,42.88951,13.77263
Spain,Velez-malaga,Parque tecnoalimentario,Tropical Fruits,36.77844,-4.10047
Italy,Cisterna di latina,Parlapiano donato,Tropical Fruits,41.5942,12.824
Belgium,Bruxelles,Exofi fresh market,Tropical Fruits,50.8444,4.35609
Turkey,Mersin,Eriştim tropikal,Tropical Fruits,36.7999,34.6342
France,Rungis cedex,Fruidor ile-de-france,Tropical Fruits,48.7492,2.35141
Spain,Algarrobo,Palacios escutia s.l,Tropical Fruits,-33.36476,-71.67075
Italy,Treviolo,Signorsucco,Tropical Fruits,45.67181,9.60921
Spain,Novelda,Canales y puentes hispanopanameños s.l,Tropical Fruits,38.38251,-0.76373
Spain,Sevilla,Import export mass 2100 s.l,Tropical Fruits,37.3879,-6.00197
Germany,Waldachtal,Gaiser kg,Tropical Fruits,48.4909,8.56581
Spain,Malaga,Distribuciones anjamar slu,Tropical Fruits,36.7185,-4.41965
Italy,Lanciano,Azienda agricola di pietro florindo,Tropical Fruits,42.23057,14.39064
Belgium,Kapenhout,Bingo nuts,Tropical Fruits,50.94177,4.54863
Italy,Roma,Desae',Tropical Fruits,41.9032,12.4957
Turkey,Isparta,Yenicem fruit,Tropical Fruits,37.7832,30.5461
Spain,Murcia,Dannys concept,Tropical Fruits,37.9831,-1.13139
Morocco,Marrakech,"Ivamaroc, s. a. r. l.",Tropical Fruits,31.6338,-8.00222
France,Saint ouen l'aumône,Bio perfect de eggley company import export,Tropical Fruits,49.04635,2.10593
France,Balma,Satourou exotique,Tropical Fruits,43.6104,1.49782
France,Marseille,Equateur fruits,Tropical Fruits,43.2934,5.37132
Germany,Frankfurt am main,Tropextrakt gmbh,Tropical Fruits,50.1121,8.68342
Greece,Arta,Agricultural cooperative of kiwi exploitation ( asea artas),Tropical Fruits,39.6912,3.34846
Turkey,Manavgat,Inci international fruits,Tropical Fruits,36.7883,31.4514
France,Pont du chateau,Terre54,Tropical Fruits,45.79946,3.2478
France,Toulon,Avocat de colombie,Tropical Fruits,43.1254,5.92988
Spain,La pobla llarga,Sat n 126 cv serena,Citrus Fruits,39.0884,-0.47463
Spain,Beniarbeig,Luis fornes sl,Citrus Fruits,38.8222,-0.00153
Spain,Elche,Agrod elx sociedad cooperativa,Citrus Fruits,38.2635,-0.69941
Greece,Athens,Toepitokio,Citrus Fruits,37.9761,23.7364
Italy,Melicucco (rc),Fru.it. varone srl,Citrus Fruits,38.43266,16.06024
Spain,Librilla,Sociedad agraria de transformación,Citrus Fruits,37.88633,-1.35337
Spain,Isla cristina,Huerta noble sl,Citrus Fruits,37.202,-7.32045
Spain,Jacarilla,Agricola del segura sa,Citrus Fruits,38.0616,-0.86817
Spain,Artana,Artan frut coop v,Citrus Fruits,39.8907,-0.25436
Italy,Corigliano calabro (cs),Gencarelli egidio,Citrus Fruits,39.5979,16.5189
Italy,Carini (pa),Il castello cooperativa arl,Citrus Fruits,38.132,13.1814
Spain,Moncofa,Sociedad de exportacion de agrios n 2 de moncofar coop valencia,Citrus Fruits,39.8068,-0.14304
Spain,Murcia,Hermanos perez marin sl,Citrus Fruits,37.9831,-1.13139
Spain,Xeresa,Ferragud e hijos sl,Citrus Fruits,39.0117,-0.21756
Spain,Palma de gandia,"Cooperativa agricola san miguel de palma de gandia, coop. valenciana",Citrus Fruits,38.923,-0.22282
Spain,Loriguilla,Citrival sa,Citrus Fruits,39.4887,-0.56801
Spain,Murcia,Limones tomas s.l.,Citrus Fruits,37.9831,-1.13139
Spain,Meliana,Enrique tamarit montalt sa,Citrus Fruits,39.5299,-0.35301
Spain,Valencia,Agrisol consorcio de exportacion s.a.,Citrus Fruits,39.4689,-0.37686
Spain,Palma del rio,Sunaran sociedad coop andaluza,Citrus Fruits,37.7005,-5.27974
Spain,Murcia,Scorpyus fruits sa,Citrus Fruits,37.9831,-1.13139
Spain,La pobla llarga,Sat n 126 cv serena,Citrus Fruits,39.0884,-0.47463
Spain,Sevilla,Sat num 3813 nuestra senora del mar de responsabilidad limitada,Citrus Fruits,37.3879,-6.00197
Spain,Bellreguard,Cooperativa agricola san miguel de bellreguart,Citrus Fruits,38.9466,-0.16301
Spain,Murcia,Garcia aranda sl,Citrus Fruits,37.9831,-1.13139
Spain,Alfara de algimia,Mayen citricos s.l.,Citrus Fruits,39.7543,-0.36107
France,St martin de crau,Sc la grand crau,Citrus Fruits,18.0255,-63.0446
Spain,Arboleas,Andalucia exportaciones sa,Citrus Fruits,37.3525,-2.07505
Spain,Tarragona,Centro gerencial compras s a,Citrus Fruits,41.117,1.25386
Spain,Picassent,Cooperativa agricola san isidro labrador cooperativa valenciana,Citrus Fruits,39.3633,-0.45981
Spain,Alcasser,Agricola san jose de alcacer sdad coop valenciana,Citrus Fruits,39.3652,-0.44532
Spain,Murcia,Raimundo garcia y cia sa,Citrus Fruits,37.9831,-1.13139
Spain,Beniel,Citricos purimar s.l.,Citrus Fruits,38.0458,-1.00187
Spain,Guadassuar,Vicente ginestar fruits s.l.,Citrus Fruits,39.1882,-0.47855
Spain,Castellon,Perez peiro sa,Citrus Fruits,39.9852,-0.04594
Spain,Castellon,Intermediere,Citrus Fruits,39.9852,-0.04594
Spain,Murcia,Garcia aranda sl,Citrus Fruits,37.9831,-1.13139
Italy,Paterno (pz),Azienda agricola spitaleri e sbaratta,Citrus Fruits,40.3762,15.7319
Spain,Xeresa,Ferragud e hijos sl,Citrus Fruits,39.0117,-0.21756
Spain,Beniel,Agroeuro cooperativa agricola,Citrus Fruits,38.0458,-1.00187
Spain,Moncofa,Sat n 9932 fast fruit,Citrus Fruits,39.8068,-0.14304
Greece,Skala,Ilias triantafillakos,Citrus Fruits,50.23033,19.85421
Spain,Murcia,Palacios munoz murcia sl,Citrus Fruits,37.9831,-1.13139
Italy,Capri leone (me),A.p.o. assoc.produttori ortofrutticoli,Citrus Fruits,38.0854,14.7279
Spain,Albal,Agricola sagrado corazon de jesus de albal coop valenciana,Citrus Fruits,39.3972,-0.41444
Spain,Santomera,Santomera agricola export sa,Citrus Fruits,38.0597,-1.04843
Poland,Nowy sacz,Jarosz,Citrus Fruits,49.621,20.7002
Italy,Roma,3d fruit s.r.l,Citrus Fruits,41.9032,12.4957
Spain,Вigastro (alicante),Citricos del milenio s.l.,Citrus Fruits,38.33079,-0.51137
Spain,Valencia,Hijos de federico lis sa,Citrus Fruits,39.4689,-0.37686
Italy,Floridia (sr),Euroagrumi srl,Citrus Fruits,37.0864,15.1423
Spain,Xativa,Comercial alavesa sa,Citrus Fruits,38.9935,-0.52007
Spain,Madrid,Inter regional agricola s.l.,Citrus Fruits,40.4196,-3.69196
Spain,Castellon,Sat masia canos hermanos de responsabilidad limitada n 7268,Citrus Fruits,39.9852,-0.04594
Spain,Almussafes,Citricos y cebollas de almusafes s.l.,Citrus Fruits,39.293,-0.41219
Spain,Castello de la ribera,Villacas sociedad limitada.,Citrus Fruits,40.4954,-5.21428
Spain,Murcia,Citricos murcia,Citrus Fruits,37.9831,-1.13139
Spain,Algemesi,Coop agricola sagrado corazon de jesus coop v algemesi,Citrus Fruits,39.1963,-0.43836
Spain,Bilbao,Lemona industrial sa,Citrus Fruits,43.2689,-2.9453
Spain,Xeresa,Fruxeresa sl,Citrus Fruits,39.0117,-0.21756
Spain,Isla cristina,Huerta noble sl,Citrus Fruits,37.202,-7.32045
Spain,Jacarilla,Agricola del segura sa,Citrus Fruits,38.0616,-0.86817
Spain,Artana,Artan frut coop v,Citrus Fruits,39.8907,-0.25436
Italy,Reggio calabria,Capua re - societa' agricola a responsabilita' limitata,Citrus Fruits,38.1127,15.6517
Italy,Catania,Ortofrutta dei f.lli scuderi di scuderi nunzio e f.lli s.n.c.,Citrus Fruits,37.5114,15.0675
Italy,Lentini,Randone antonino & figli s.r.l.,Citrus Fruits,37.28525,14.99828
Italy,Lentini,Pollicino santo,Citrus Fruits,37.28525,14.99828
Italy,Rizziconi,In.d.a.cal.sas di ventrice domenico & c.,Citrus Fruits,38.4131,15.95939
Italy,Paterno',La coccinella a c.s. s.r.l.,Citrus Fruits,37.56774,14.90569
Italy,Lentini,G. russo & c.,Citrus Fruits,37.28525,14.99828
Italy,Massafra,Mastrangelo pietro,Citrus Fruits,40.58789,17.11608
Italy,San ferdinando,S.i.a.m. s.r.l.,Citrus Fruits,38.4841,15.92364
Italy,Adrano,Arcifa agatino,Citrus Fruits,37.66048,14.83759
Italy,Palizzi,Azienda agricola nesci di nesci francesco saverio,Citrus Fruits,37.96612,15.98757
Italy,Siracusa,Az. agr. olivieri maurizio,Citrus Fruits,37.078,15.2813
Italy,Bovalino,Giorgi teresa,Citrus Fruits,38.1537,16.17459
Turkey,Mersin,Aköz ticaret,Citrus Fruits,36.7999,34.6342
Spain,Sagunto,Coop agricola del valle del palancia coop valencia,Citrus Fruits,39.68,-0.27837
Italy,Sibari,Agr luciano cirolla,Citrus Fruits,39.75084,16.45163
Spain,Vitoria,Frutas uriarte s.l,Citrus Fruits,-20.3206,-40.3341
Spain,Almazora,Agrimarba s.a.,Citrus Fruits,39.4848,-0.37096
Spain,Beniajan,Sociedad agraria de transformación 9157,Citrus Fruits,37.9755,-1.07164
Spain,Catadau,Agricola de catadau s coop v ltda,Citrus Fruits,39.2726,-0.57499
Spain,Tortosa,Coop agricola de bitem s.c.c.l.,Citrus Fruits,40.8129,0.52047
Italy,Roma,3d fruit s.r.l,Citrus Fruits,41.9032,12.4957
Italy,Paterno (pz),Azienda agricola spitaleri e sbaratta,Citrus Fruits,40.3762,15.7319
Spain,Sagunto,Frutas ros y torres s.l.,Citrus Fruits,39.68,-0.27837
Spain,Вigastro (alicante),Citricos del milenio s.l.,Citrus Fruits,38.33079,-0.51137
Spain,Alfara de algimia,Mayen citricos s.l.,Citrus Fruits,39.7543,-0.36107
Spain,Valencia,Juan rubert sl,Citrus Fruits,39.4689,-0.37686
Italy,Grammichele,Cannizzo gaetano,Citrus Fruits,37.2159,14.6355
Italy,Barcellona pozzo di gotto,Perdichizzi antonino,Citrus Fruits,38.14816,15.2169
Italy,Montescaglioso,Tipografia motola di motola rocco,Citrus Fruits,40.55396,16.66743
Italy,Varapodio,Incal agricola s.r.l.,Citrus Fruits,38.31458,15.98504
Italy,Carlentini,Intercitrus,Citrus Fruits,37.27838,15.01268
Italy,Santa teresa di riva,Azienda agricola di bella nunzio e c,Citrus Fruits,37.9352,15.35583
Italy,Palagonia,Campisi salvatore,Citrus Fruits,37.3289,14.74613
Italy,Isola di capo rizzuto,Demeco maurizio,Citrus Fruits,38.95966,17.09351
Italy,Massafra,Azienda agricola di latorraca luciano,Citrus Fruits,40.58789,17.11608
Italy,Rizziconi,In.d.a.cal.sas di ventrice domenico & c.,Citrus Fruits,38.4131,15.95939
Italy,Lamezia terme,Co.p.p.i s.r.l.,Citrus Fruits,38.97343,16.31708
Italy,Corigliano calabro,Palermo & c. s.n.c.,Citrus Fruits,39.5979,16.51893
Italy,Siracusa,Az. agr. olivieri maurizio,Citrus Fruits,37.078,15.2813
Italy,Villabate,Canguretto di scire' paolo e c. snc,Citrus Fruits,38.08085,13.43568
Spain,Palma,Bibifrut sl,Citrus Fruits,39.5715,2.64694
Italy,Bagheria,Tropical fruit societa' cooperativa,Citrus Fruits,38.0844,13.5062
Spain,La rinconada,Productores unidos sevillanos sa.,Citrus Fruits,37.4929,-5.97825
Italy,Belpasso,Crisafulli giovanni,Citrus Fruits,37.5841,14.97542
Italy,Palagonia,Azienda agricola di francesco milluzzo,Citrus Fruits,37.3289,14.74613
Italy,Tursi,Azienda agricola romano rocco giuseppe,Citrus Fruits,40.24467,16.46443
Italy,Palagonia,Agritalia societa' cooperativa agricola,Citrus Fruits,37.3289,14.74613
Italy,Santa maria del cedro,Consorzio europeo cedro mediterraneo terre di calabria,Citrus Fruits,39.7468,15.8352
Italy,Nizza di sicilia,Siracusana s.r.l.,Citrus Fruits,37.98411,15.40396
Italy,Reggio calabria,Capua re - societa' agricola a responsabilita' limitata,Citrus Fruits,38.1127,15.6517
Spain,Alhaurin de la torre,Sanchez becerra hermanos sl,Citrus Fruits,36.662,-4.56649
Italy,Ribera (ag),Biofruit srl,Citrus Fruits,37.5047,13.2723
Spain,Alcala de xivert,Frutas sorli s.r.l.,Citrus Fruits,40.3059,0.22602
Italy,Corigliano-rossano,Russo maria,Citrus Fruits,39.5979,16.51893
Italy,Corigliano-rossano,Montalto francesco,Citrus Fruits,39.5979,16.51893
Italy,Grammichele,Cannizzo gaetano,Citrus Fruits,37.2159,14.6355
Italy,Corigliano-rossano,Ortofrutta cantinella ditta,Citrus Fruits,39.5979,16.51893
Spain,La rinconada,Productores unidos sevillanos sa.,Citrus Fruits,37.4929,-5.97825
Italy,Corigliano-rossano,Ferrante societa' cooperativa agricola,Citrus Fruits,39.5979,16.51893
Italy,Corigliano-rossano,Ortofrutticola romano umberto e figli s.a.s.,Citrus Fruits,39.5979,16.51893
Italy,Collevecchio,Az. agr. pittalis,Citrus Fruits,42.3355,12.5524
Italy,Saponara,Bertino domenico & f.,Citrus Fruits,38.19155,15.43487
Italy,Montalbano jonico,Nivuori maurizio,Citrus Fruits,40.28911,16.56758
Italy,Corigliano calabro,F.lli romanelli e c. s.n.c.,Citrus Fruits,39.5979,16.51893
Italy,Santa maria del cedro,Consorzio europeo cedro mediterraneo terre di calabria,Citrus Fruits,39.7468,15.8352
Italy,Montescaglioso,Tipografia motola di motola rocco,Citrus Fruits,40.55396,16.66743
Italy,Avola,Oleificio caruso di caruso sebastiano,Citrus Fruits,36.9103,15.1389
Italy,Paterno',La coccinella a c.s. s.r.l.,Citrus Fruits,37.56774,14.90569
Italy,Rosarno,Emozioni d'oriente s.a.s. di giuseppe careri e c.,Citrus Fruits,38.4897,15.974
Italy,Lentini,G. russo & c.,Citrus Fruits,37.28525,14.99828
Spain,Oliva,Convite s.a.,Citrus Fruits,38.9189,-0.11795
Italy,Massa lubrense,Mastellone aniello,Citrus Fruits,40.61139,14.34569
Italy,Pedara,C.s.u. ct01 s.r.l.,Citrus Fruits,37.61983,15.06093
Italy,Rosarno,Agroindustriale s.r.l.,Citrus Fruits,38.4897,15.974
Italy,Scordia,La principessa s.r.l.,Citrus Fruits,37.2929,14.8493
Italy,Belpasso,Panitteri & c. s.r.l.,Citrus Fruits,37.5841,14.97542
Italy,Reggio calabria,Capua re - societa' agricola a responsabilita' limitata,Citrus Fruits,38.1127,15.6517
Spain,Beniel,Frutas beri sa,Citrus Fruits,38.0458,-1.00187
Italy,Corigliano calabro,Palermo & c. s.n.c.,Citrus Fruits,39.5979,16.51893
Italy,Santa maria del cedro,Consorzio europeo cedro mediterraneo terre di calabria,Citrus Fruits,39.7468,15.8352
Italy,Acireale,Granata sebastiano,Citrus Fruits,37.6125,15.1656
Italy,Massa lubrense,Mastellone aniello,Citrus Fruits,40.61139,14.34569
Italy,Belpasso,Panitteri & c. s.r.l.,Citrus Fruits,37.5841,14.97542
Spain,Villalonga,Coop agricola ntra sra de la fuente coop valencian,Citrus Fruits,-27.4446,-55.8734
Spain,Catarroja (valencia),Cami de llevant s.l.,Citrus Fruits,39.4031,-0.40332
Spain,Murcia,Frutas apemar s. l.,Citrus Fruits,37.9831,-1.13139
Spain,Chilches,"Antonio llusar y cia., s.l.",Citrus Fruits,39.7817,-0.18469
Italy,Melicucco,Agricola f.lli zuccala' s.r.l.,Citrus Fruits,38.43266,16.06024
Italy,Biancavilla,C.a.p.o.a.s.,Citrus Fruits,37.64817,14.85821
Italy,Pace del mela,I.d.a.g. s.r.l.,Citrus Fruits,38.18295,15.30968
Italy,Ribera (ag),Biofruit srl,Citrus Fruits,37.5047,13.2723
Spain,Alcala de xivert,Frutas sorli s.r.l.,Citrus Fruits,40.3059,0.22602
Spain,La rinconada,Productores unidos sevillanos sa.,Citrus Fruits,37.4929,-5.97825
Italy,Corigliano-rossano,Russo maria,Citrus Fruits,39.5979,16.51893
Italy,Aci castello,Sanatangelo liliana,Citrus Fruits,37.5551,15.14644
Italy,Corigliano-rossano,Montalto francesco,Citrus Fruits,39.5979,16.51893
Italy,Avola,Oleificio caruso di caruso sebastiano,Citrus Fruits,36.9103,15.1389
Italy,Corigliano-rossano,Impresa agricola autieri salvatore,Citrus Fruits,39.5979,16.51893
Italy,Corigliano-rossano,Lamenza giovanni,Citrus Fruits,39.5979,16.51893
Italy,Corigliano-rossano,Ortofrutta cantinella ditta,Citrus Fruits,39.5979,16.51893
Italy,San vito,Sulis marco,Citrus Fruits,8.81646,-82.96845
Italy,Corigliano-rossano,Ferrante societa' cooperativa agricola,Citrus Fruits,39.5979,16.51893
Italy,Corigliano-rossano,Ortofrutticola romano umberto e figli s.a.s.,Citrus Fruits,39.5979,16.51893
Italy,Collevecchio,Az. agr. pittalis,Citrus Fruits,42.3355,12.5524
Italy,Catania,Antichita' nicotra di santangelo agata,Citrus Fruits,37.5114,15.0675
Italy,Scordia,Barresi gaetano,Citrus Fruits,37.2929,14.8493
Italy,Taurianova,Calabrasucchi s.n.c.,Citrus Fruits,38.35826,16.01408
Italy,Militello in val di catania,Licciardino sebastiano,Citrus Fruits,37.2746,14.78981
Italy,Grammichele,La terra del sole srls,Citrus Fruits,37.2159,14.6355
Italy,Francofonte,Cunsolo salvatore,Citrus Fruits,37.226,14.8861
Italy,Varapodio,Scarpari soc.coop.,Citrus Fruits,38.31458,15.98504
Italy,Acireale,Conagrus,Citrus Fruits,37.6125,15.1656
Italy,Adrano,Arcifa agatino,Citrus Fruits,37.66048,14.83759
Spain,Alcala de xivert,Frutas sorli s.r.l.,Citrus Fruits,40.3059,0.22602
Italy,Aci castello,Sanatangelo liliana,Citrus Fruits,37.5551,15.14644
Italy,Trento,Campailla giuseppe,Citrus Fruits,46.07,11.1193
Italy,Bagheria,Coop.va 'siciliana agrumi lavorati' si.a.l.,Citrus Fruits,38.0844,13.5062
Italy,Scordia,Ruggieri fratelli,Citrus Fruits,37.2929,14.8493
Italy,Scordia,Mario caniglia & c.,Citrus Fruits,37.2929,14.8493
Italy,Catania,F.lli d'urso s.r.l.,Citrus Fruits,37.5114,15.0675
Italy,Avola,Oleificio caruso di caruso sebastiano,Citrus Fruits,36.9103,15.1389
Italy,Catania,Eberle enrico,Citrus Fruits,37.5114,15.0675
Spain,Guadassuar,Frutas beltran sl,Citrus Fruits,39.1882,-0.47855
Italy,Rosarno,Macri maria grazia,Citrus Fruits,38.4897,15.974
Italy,Modica,Agosta rosario,Citrus Fruits,36.85584,14.76047
Italy,Corigliano-rossano,Santo damiano,Citrus Fruits,39.5979,16.51893
Italy,San ferdinando,Casertagrumi s.n.c.,Citrus Fruits,38.4841,15.92364
Italy,Messina,Visalli benedetto - genuin,Citrus Fruits,38.1784,15.5531
Turkey,Istanbul,Galata grup diş ticaret aş,Citrus Fruits,41.062,28.9888
Italy,Maiori,Di martino alessandro,Citrus Fruits,40.64812,14.64099
Italy,Melicucco,Ortofrutta fratelli zuccala' s.r.l.,Citrus Fruits,38.43266,16.06024
Italy,Rosolini,Caruso antonino,Citrus Fruits,36.82108,14.95397
Italy,Acireale,S. michele societa' cooperativa agricola,Citrus Fruits,37.6125,15.1656
Italy,Rosarno,Agroindustriale s.r.l.,Citrus Fruits,38.4897,15.974
Italy,Pedara,C.s.u. ct01 s.r.l.,Citrus Fruits,37.61983,15.06093
Italy,Lentini,Rossarance societa' cooperativa,Citrus Fruits,37.28525,14.99828
Italy,Acireale,Granata sebastiano,Citrus Fruits,37.6125,15.1656
Italy,Palagonia,Giacomo altieri e figlio s.r.l.,Citrus Fruits,37.3289,14.74613
Italy,Corigliano-rossano,Ferrante societa' cooperativa agricola,Citrus Fruits,39.5979,16.51893
Italy,Corigliano-rossano,Ortofrutticola romano umberto e figli s.a.s.,Citrus Fruits,39.5979,16.51893
Italy,Rossano,Foggetti giovanni,Citrus Fruits,39.5759,16.6347
Italy,Palagonia,Tre fontane palagonia soc.coop. arl,Citrus Fruits,37.3289,14.74613
Italy,Caulonia,Agroionica soc coop a rl,Citrus Fruits,38.38173,16.40881
Italy,Ispica,Azienda agricola pietro cicero,Citrus Fruits,36.7819,14.9098
Italy,Capo d'orlando,Citrofood s.r.l.,Citrus Fruits,38.15796,14.74436
Italy,Mineo,3g l'arancia di sicilia di azzaro g.,Citrus Fruits,37.26735,14.68874
Italy,Palma campania,La parisi s.r.l.,Citrus Fruits,40.87042,14.55269
Italy,Bagheria,Cooperativa cefala',Citrus Fruits,38.0844,13.5062
Italy,Rizziconi,Masseria adornato michele,Citrus Fruits,38.4131,15.95939
Italy,Sant'alessio siculo,Trimarchi carmelo,Citrus Fruits,37.92676,15.35105
Italy,Marsala,Ingianni antonella,Citrus Fruits,37.80004,12.43511
Italy,Pace del mela,I.d.a.g. s.r.l.,Citrus Fruits,38.18295,15.30968
Italy,San felice a cancello,Giovani coltivatori societa' agricola s.r.l.,Citrus Fruits,41.01171,14.48145
Italy,Priolo gargallo,Gozzo davide,Citrus Fruits,37.159,15.1855
Italy,Satriano,Matozzo saverio agrofrutticola & c.,Citrus Fruits,38.66852,16.48125
Italy,Adrano,Garofalo nicolo,Citrus Fruits,37.66048,14.83759
Italy,Augusta,Agropiu' s.r.l.,Citrus Fruits,48.3703,10.8979
Spain,Chilches,"Antonio llusar y cia., s.l.",Citrus Fruits,39.7817,-0.18469
Italy,Scordia,Op coop orandor societa' cooperativa,Citrus Fruits,37.2929,14.8493
Spain,Murcia,Fruhling s. l.,Citrus Fruits,37.9831,-1.13139
Italy,Rizziconi,S.a.c. succhi agrumi calabresi s.r.l.,Citrus Fruits,38.4131,15.95939
Italy,Bagnolo in piano,Garofalo sebastiano,Citrus Fruits,44.76328,10.67408
Chile,Santiago de chile,Ecoagro asesorias,Citrus Fruits,-33.4372,-70.65
Italy,Rocca di neto,Colacino silvana,Citrus Fruits,39.19126,17.00031
Spain,Guadassuar,Frutas beltran sl,Citrus Fruits,39.1882,-0.47855
Italy,Scordia,Mario caniglia & c.,Citrus Fruits,37.2929,14.8493
Italy,Carini,Il castello cooperativa arl,Citrus Fruits,38.13195,13.18141
Spain,Llauri,Sendra agrícola sl,Citrus Fruits,39.14504,-0.32925
Italy,Varapodio,Scarpari soc.coop.,Citrus Fruits,38.31458,15.98504
Italy,Palagiano,Ceres s.r.l. societa' agricola,Citrus Fruits,40.57916,17.03704
Italy,Scordia,Scire' e figlio s.r.l.,Citrus Fruits,37.2929,14.8493
Spain,Orihuela,Cítricos delevante (explotaciones agrícolas cipercan s.l.),Citrus Fruits,38.0817,-0.94487
Italy,Biancavilla,Bonaccorsi s.r.l.,Citrus Fruits,37.64817,14.85821
Italy,Torrenova,C. e. p. a.,Citrus Fruits,38.0876,14.67948
Turkey,Ankara,Sun ic ve dis ticaret ve danismanlik,Citrus Fruits,39.9211,32.8539
Italy,Riposto,Pace salvatore,Citrus Fruits,37.72661,15.20749
Spain,Murcia,Hijos de alberto del cerro sl,Citrus Fruits,37.9831,-1.13139
Italy,Misilmeri,Marciano' maria antonietta,Citrus Fruits,38.02946,13.4497
Italy,Maiori,Buonocore raffaele,Citrus Fruits,40.64812,14.64099
Italy,Corigliano-rossano,Santo damiano,Citrus Fruits,39.5979,16.51893
Italy,Bagheria,Cooperativa cefala',Citrus Fruits,38.0844,13.5062
Italy,Caulonia,Agroionica soc coop a rl,Citrus Fruits,38.38173,16.40881
Italy,Lentini,Pollicino santo,Citrus Fruits,37.28525,14.99828
Netherlands,Blaricum,Maroc fruit europe bv,Citrus Fruits,52.2774,5.25114
Italy,Acireale,Conagrus,Citrus Fruits,37.6125,15.1656
Italy,Taormina,Gold fruit taormina s.r.l.,Citrus Fruits,37.8531,15.294
Italy,Lamezia terme,Co.p.p.i s.r.l.,Citrus Fruits,38.97343,16.31708
Italy,Rizziconi,S.a.c. succhi agrumi calabresi s.r.l.,Citrus Fruits,38.4131,15.95939
Italy,Sannicola,Cooperativa agricola olearia sannicolese ( s.r.l. ),Citrus Fruits,40.099,18.06094
Italy,Messina,Visalli benedetto - genuin,Citrus Fruits,38.1784,15.5531
Italy,Satriano,Matozzo saverio agrofrutticola & c.,Citrus Fruits,38.66852,16.48125
Spain,Valencia,Agricola axport fruit s.l,Citrus Fruits,39.4689,-0.37686
Spain,Murcia,Frutas condiso s.l.,Citrus Fruits,37.9831,-1.13139
Italy,Capo d'orlando,Eurofood s.r.l.,Citrus Fruits,38.15796,14.74436
Spain,Madrid,Gloriav,Citrus Fruits,40.4196,-3.69196
Spain,Huelva,Fruitvides sca,Citrus Fruits,37.2546,-6.94518
Egypt,Cairo,Condor -invest,Citrus Fruits,30.0443,31.2353
Italy,Capo d'orlando,U.p.e.a.,Citrus Fruits,38.15796,14.74436
Greece,Chania crete,Synergatiki s.a.,Citrus Fruits,35.512,24.0123
Spain,Brenes,Viveros sevilla sa,Citrus Fruits,37.55067,-5.86976
Italy,San rocco al porto,Polenghi - las s.r.l.,Citrus Fruits,45.08403,9.69913
Spain,Murcia,Frutas romu sa,Citrus Fruits,37.9831,-1.13139
Italy,Palagonia,Vinci concetta maria,Citrus Fruits,37.3289,14.74613
Italy,Corigliano-rossano,Hilias,Citrus Fruits,39.5979,16.51893
Italy,Floridia,Biosikula az. agr. di radino gaetano,Citrus Fruits,37.0864,15.1423
Italy,Rosarno,Italiano fabio alessandro,Citrus Fruits,38.4897,15.974
Spain,Beniel,Frutas beri sa,Citrus Fruits,38.0458,-1.00187
Italy,Siracusa,Az. agr. olivieri maurizio,Citrus Fruits,37.078,15.2813
Italy,Scordia,Op coop orandor societa' cooperativa,Citrus Fruits,37.2929,14.8493
Italy,Bovalino,Giorgi teresa,Citrus Fruits,38.1537,16.17459
Italy,Terranova da sibari,Baffa francesco,Citrus Fruits,39.65787,16.34042
Spain,Murcia,Fruhling s. l.,Citrus Fruits,37.9831,-1.13139
Italy,Reggio calabria,Lucisano pierdomenico,Citrus Fruits,38.1127,15.6517
Italy,Scanzano jonico,Dolce alberto,Citrus Fruits,40.24832,16.69906
Italy,Barcellona pozzo di gotto,Agrumaria reitano (s.n.c.),Citrus Fruits,38.14816,15.2169
Italy,Corigliano-rossano,Zito rosa,Citrus Fruits,39.5979,16.51893
Italy,Scordia,La bonita s.r.l.,Citrus Fruits,37.2929,14.8493
Italy,Adrano,Arcifa agatino,Citrus Fruits,37.66048,14.83759
Italy,San ferdinando,S.i.a.m. s.r.l.,Citrus Fruits,38.4841,15.92364
Italy,Catania,Ortofrutta dei f.lli scuderi di scuderi nunzio e f.lli s.n.c.,Citrus Fruits,37.5114,15.0675
Italy,Palermo,La zagara s.r.l.,Citrus Fruits,38.1221,13.3611
Italy,Scordia,La veronica societa'cooperativa agricola,Citrus Fruits,37.2929,14.8493
Spain,Valencia,Etn & solution 4 you gmbh,Citrus Fruits,39.4689,-0.37686
Turkey,Antalya,Megaexport  gida tekstil ve turizm ticaret limited sti,Citrus Fruits,36.879,30.7092
Morocco,Agadir,Limona d'origine,Citrus Fruits,30.4202,-9.60394
Italy,Rosarno,T.l.a. sas di maduli teresa,Citrus Fruits,38.4897,15.974
Italy,Bagheria,Coop. santa rosa,Citrus Fruits,38.0844,13.5062
Italy,Rosarno,Citrus derivati sas di macri' domenico maria & c,Citrus Fruits,38.4897,15.974
Spain,Murcia,Amgat citrus products s.a.,Citrus Fruits,37.9831,-1.13139
Spain,Cerdanyola del vallès,Sucssolevi,Citrus Fruits,41.4925,2.14699
France,Rungis,Canovas et compagnie,Citrus Fruits,48.7492,2.35141
Italy,Corigliano-rossano,Morabito agrumi di morabito g.& c.snc,Citrus Fruits,39.5979,16.51893
Egypt,Cairo,Condor -invest,Citrus Fruits,30.0443,31.2353
France,Belfort du quercy,La pinede,Citrus Fruits,44.26962,1.5437
France,Perpignan,Sas arco fruits,Citrus Fruits,42.6982,2.88748
Spain,Santomera,Citromil sl,Citrus Fruits,38.0597,-1.04843
Spain,Oliva,Canamas hermanos sa,Citrus Fruits,38.9189,-0.11795
Spain,Madrid,Gloriav,Citrus Fruits,40.4196,-3.69196
Italy,Capo d'orlando,U.p.e.a.,Citrus Fruits,38.15796,14.74436
Italy,Capo d'orlando,Eurofood s.r.l.,Citrus Fruits,38.15796,14.74436
Italy,Corigliano-rossano,Romano luigi ingrosso ortofrutta,Citrus Fruits,39.5979,16.51893
Spain,Archena,Cobyfruit,Citrus Fruits,38.1174,-1.29875
Spain,Palma de gandia,Frutas hermanos catala benicolet sl,Citrus Fruits,38.923,-0.22282
Turkey,Mersin,Gulerler citrus,Citrus Fruits,36.7999,34.6342
Greece,Simiza,Orange plus,Citrus Fruits,37.91969,21.39578
Spain,Valencia,Naranjadirec,Citrus Fruits,39.4689,-0.37686
Italy,Carlentini,Agriturismo il giardino del sole di nicosia vincenza maria,Citrus Fruits,37.27838,15.01268
Italy,Scordia,La mariarosa s.r.l.,Citrus Fruits,37.2929,14.8493
Egypt,Cairo,Arab group for investment and development,Citrus Fruits,30.0443,31.2353
Spain,Murcia,Frutas poveda sa,Citrus Fruits,37.9831,-1.13139
Turkey,Adana,Adanatarm,Citrus Fruits,36.9857,35.325
Spain,Gandia,"Nelcona,cb",Citrus Fruits,38.9727,-0.1821
Spain,Altea,Coop agricola de altea sclv,Citrus Fruits,38.6008,-0.0507
Spain,Burriana,Frutas y verduras fran 59 s.l,Citrus Fruits,39.88951,-0.08511
Italy,Corigliano-rossano,Taranto domenico,Citrus Fruits,39.5979,16.51893
Turkey,Mersin,Freshlifecitrus,Citrus Fruits,36.7999,34.6342
Italy,Corigliano-rossano,Morabito agrumi di morabito g.& c.snc,Citrus Fruits,39.5979,16.51893
Italy,Taurianova,Andreacchio domenico,Citrus Fruits,38.35826,16.01408
Spain,Valencia,Mel fruits,Citrus Fruits,39.4689,-0.37686
Morocco,Casablanca,Kbgroup sa,Citrus Fruits,33.5966,-7.61889
Peru,Lima,Coporacion camayoc,Citrus Fruits,-12.0561,-77.0268
Italy,Palagiano,Cgv group,Citrus Fruits,40.57916,17.03704
Spain,Cobatillas,Avescampo,Citrus Fruits,38.05416,-1.0717
Spain,"La rinconada, sevilla",Gran vega selección,Citrus Fruits,37.49285,-5.97825
Italy,Grammichele,Azienda agricola f.lli ialuna ss,Citrus Fruits,37.2159,14.6355
Italy,Militello in val di catania,A.p.a.m. s.r.l.,Citrus Fruits,37.2746,14.78981
Italy,Ribera,Azienda agricola tortorici,Citrus Fruits,37.5047,13.2723
Turkey,Adana,Ince agriculture,Citrus Fruits,36.9857,35.325
Italy,San ferdinando,International juices s.r.l.,Citrus Fruits,38.4841,15.92364
Germany,Leverkusen,Pott besitz gmbh & co. kg,Citrus Fruits,51.0332,6.98174
Turkey,Istanbul,Organik dis ticaret,Citrus Fruits,41.062,28.9888
Turkey,Mersin,Degirmenciler,Citrus Fruits,36.7999,34.6342
Turkey,Mersin,Eren agriculture,Citrus Fruits,36.7999,34.6342
Spain,Palma del río,La huerta del tío pepe,Citrus Fruits,37.7005,-5.27974
Italy,Taurianova,Metropoli's pizza di sicari giuseppe & c. s.n.c.,Citrus Fruits,38.35826,16.01408
Italy,Gioia tauro,Azienda agricola piromalli,Citrus Fruits,38.42675,15.89861
Spain,Lleida,Horta de barbens,Citrus Fruits,41.6149,0.62755
Spain,Sevilla,General fruit sl,Citrus Fruits,37.3879,-6.00197
Italy,Zogno,Tamburino elisa,Citrus Fruits,45.79217,9.66317
Italy,Francofonte,Almafruit s.r.l.,Citrus Fruits,37.226,14.8861
Spain,Valencia,Antonio collado,Citrus Fruits,39.4689,-0.37686
Italy,Palagonia,Ortofrutta vitale s.r.l.,Citrus Fruits,37.3289,14.74613
Spain,Murcia,"Fyv imperial, s.l.",Citrus Fruits,37.9831,-1.13139
Italy,Messina,Misitano & stracuzzi s.p.a.,Citrus Fruits,38.1784,15.5531
Italy,Mazzarra' sant'andrea,L'impero verde di de carlo salvatore,Citrus Fruits,38.08924,15.13701
Italy,Candidoni,Medma frutta,Citrus Fruits,38.50585,16.08644
Italy,Cinisi,Mineo-saitta soc.coop.arl,Citrus Fruits,38.1632,13.1041
Italy,Grammichele,Azienda agricola f.lli ialuna ss,Citrus Fruits,37.2159,14.6355
Greece,Simiza,Orange plus,Citrus Fruits,37.91969,21.39578
Italy,Capo d'orlando,U.p.e.a.,Citrus Fruits,38.15796,14.74436
Italy,Torrenova,Consorzio a.p.a.m.,Citrus Fruits,38.0876,14.67948
Spain,Valencia,Naranjas verdeguer,Citrus Fruits,39.4689,-0.37686
Italy,Ribera,Azienda agricola fidanza,Citrus Fruits,37.5047,13.2723
Spain,Lorca,Unexport sociedad cooperativa,Citrus Fruits,37.6806,-1.69036
Spain,Murcia,Terra fecundis,Citrus Fruits,37.9831,-1.13139
Spain,Murcia,Men mexico excellent nature,Citrus Fruits,37.9831,-1.13139
Italy,Mineo,Arance marletta,Citrus Fruits,37.26735,14.68874
Italy,Catania,Azienda agricola la rosa,Citrus Fruits,37.5114,15.0675
Spain,Burriana,Naranjas de burriana,Citrus Fruits,39.88951,-0.08511
Spain,Burriana,Dani fruits,Citrus Fruits,39.88951,-0.08511
Turkey,Antalya,Megaexport gida tekstil ve turizm ticaret limited sti.,Citrus Fruits,36.879,30.7092
Poland,Tegoborze,Fruittrade,Citrus Fruits,49.70976,20.64391
France,Rungis cedex,Societe pierre desmettre & fils,Citrus Fruits,48.7492,2.35141
Italy,Terme vigliatore,Branca fratelli s.p.a.,Citrus Fruits,38.13395,15.16586
Spain,Valencia,Gourmet oranges,Citrus Fruits,39.4689,-0.37686
Turkey,Mersin,Degirmenciler,Citrus Fruits,36.7999,34.6342
Turkey,Adana,Ince agriculture,Citrus Fruits,36.9857,35.325
Italy,Genova,Giardinaggio la dimensione verde,Citrus Fruits,44.4104,8.93898
Italy,Messina,Baller s.r.l.,Citrus Fruits,38.1784,15.5531
Germany,Leverkusen,Pott besitz gmbh & co. kg,Citrus Fruits,51.0332,6.98174
Italy,Taurianova,Metropoli's pizza di sicari giuseppe & c. s.n.c.,Citrus Fruits,38.35826,16.01408
Italy,Ribera,Azienda agricola tortorici,Citrus Fruits,37.5047,13.2723
Spain,L'alcudia de crespins,Logisfrut,Citrus Fruits,38.97402,-0.59272
Turkey,Mersin,Miras yaş sebze meyve narenciye,Citrus Fruits,36.7999,34.6342
Italy,Gioia tauro,Azienda agricola piromalli,Citrus Fruits,38.42675,15.89861
Italy,Francofonte,Almafruit s.r.l.,Citrus Fruits,37.226,14.8861
Italy,Iglesias,Sulcis garden snc,Citrus Fruits,39.31255,8.53578
Italy,Grammichele,Arance della badia,Citrus Fruits,37.2159,14.6355
Peru,Lima,Transeagleperu sac,Citrus Fruits,-12.0561,-77.0268
Greece,Arta,Kiwi arta,Citrus Fruits,39.6912,3.34846
Spain,El mirador murcia,"Hacienda del molino, s.l.",Citrus Fruits,37.84736,-0.85633
Greece,Athens,Macofruit,Citrus Fruits,37.9761,23.7364
Turkey,Akdeniz /mersin/turkey,Fikret degirmenci sarartma paketleme ihr. ith. ve paz. lim.,Citrus Fruits,,
Italy,San ferdinando,S.r.m. calabria fruit s.r.l.s.,Citrus Fruits,38.4841,15.92364
Spain,Termens,3pfruits termens s.l.u,Citrus Fruits,,
Turkey,Antalya,Ganita madencilik gida tarim eml dan san ve ticaret ltd,Citrus Fruits,36.879,30.7092
Spain,Vila-real,Paquele fruits,Citrus Fruits,,
Spain,Jacarilla,Import export albaladejo s.l,Citrus Fruits,38.0616,-0.86817
Turkey,Beşiktas/istanbul,Turkish fruits,Citrus Fruits,,
Turkey,Mersin,Kurt quality food and agricultural products,Citrus Fruits,36.7999,34.6342
Spain,Burriana,"Naranjas orange, s.l.",Citrus Fruits,39.88951,-0.08511
Spain,Algemesi,Naranjas costa,Citrus Fruits,39.1963,-0.43836
Italy,Ribera,Azienda agricola fidanza,Citrus Fruits,37.5047,13.2723
Greece,Skala,Kalantonis fruits,Citrus Fruits,50.23033,19.85421
Turkey,Istanbul,Unvers trade,Citrus Fruits,41.062,28.9888
Spain,Oliva,Taronges devesa,Citrus Fruits,38.9189,-0.11795
Italy,Ribera,Fitofarma del dott. tortorici calogero,Citrus Fruits,37.5047,13.2723
Spain,Montesa (valencia),S.a.t. fresanz,Citrus Fruits,,
Spain,Murcia,Terra fecundis,Citrus Fruits,37.9831,-1.13139
Italy,Solarino,Sicilia agrumi,Citrus Fruits,,
Spain,Valencia,Naranjas verdeguer,Citrus Fruits,39.4689,-0.37686
Turkey,Mersin/tarsus,Uygur tarim,Citrus Fruits,,
Spain,Alquerias,Sidides export import,Citrus Fruits,,
Italy,Taurianova,Calabriajuice,Citrus Fruits,38.35826,16.01408
Spain,Paiporta-valencia,Daily orange,Citrus Fruits,,
France,Rognac,Armand fabre,Citrus Fruits,,
Italy,Floridia,Effe fruit s.r.l.s.,Citrus Fruits,37.0864,15.1423
Spain,Valencia,Oranges online - naranjas quique,Citrus Fruits,39.4689,-0.37686
Spain,Corbera,Naranjas tradicionales,Citrus Fruits,,
Turkey,Mersin,Kyc agriculture,Citrus Fruits,36.7999,34.6342
Spain,Sevilla,Maquinaria hortofrutícola emf s.l.,Citrus Fruits,37.3879,-6.00197
Italy,Santa maria di licodia,Gruppo bonomo s.p.a.,Citrus Fruits,,
Italy,Ribera,Arance ok - arance di ribera,Citrus Fruits,37.5047,13.2723
Spain,Palma del río,Busconaranjas,Citrus Fruits,37.7005,-5.27974
Spain,Valencia,Naranjas ribera del júcar,Citrus Fruits,39.4689,-0.37686
Greece,Galatas troizhnias,Papagelis fruit,Citrus Fruits,,
Turkey,Mersin,Biberciler ic dis gida mad paz tic ltd sti,Citrus Fruits,36.7999,34.6342
Spain,Termens,3pfruits termens s.l.u,Citrus Fruits,,
Morocco,Agadir,Lymouna matysha,Citrus Fruits,30.4202,-9.60394
Turkey,Akdeniz /mersin/turkey,Fikret degirmenci sarartma paketleme ihr. ith. ve paz. lim.,Citrus Fruits,,
Spain,Sevilla,Hidroponia sevillana,Citrus Fruits,37.3879,-6.00197
Spain,La pobla de vallbona,"Peiro y eida, s.l.",Citrus Fruits,,
Spain,Xilxes (castellon).,Naranjas ribelles,Citrus Fruits,,
Spain,Cases d'alcaner-tarragona,Natur citrics,Citrus Fruits,,
Italy,Iglesias,Sulcis garden snc,Citrus Fruits,39.31255,8.53578
Turkey,Mersin,Asteriya ithalat ihracat ins. ve nak.ltd.sti.,Citrus Fruits,36.7999,34.6342
Italy,Grammichele,Arance della badia,Citrus Fruits,37.2159,14.6355
Egypt,Cairo,Euromisrfruit,Citrus Fruits,30.0443,31.2353
Italy,Randazzo,Vivai russo ssa,Citrus Fruits,,
Turkey,Istanbul,Zakaryayev group,Citrus Fruits,41.062,28.9888
Egypt,Cairo,El gebaly fruits,Citrus Fruits,30.0443,31.2353
Turkey,Adana,Esmeler tarim,Citrus Fruits,36.9857,35.325
Spain,Oliva,Citroliva,Citrus Fruits,38.9189,-0.11795
Egypt,Benha,Al koptan for import&export,Citrus Fruits,,
Spain,Alcanar,Frutéate,Citrus Fruits,,
Spain,Almeria,Frutasbimar 2008 s.l.,Citrus Fruits,,
Greece,Tragano,Fytron,Citrus Fruits,,
Greece,Agrinio,Agrotikos syneterismos esperidokaliergiton stratoy,Citrus Fruits,,
Spain,Almenara,"Pro cit adau, s.l.",Citrus Fruits,,
Spain,Huelva,Andevalobio,Citrus Fruits,37.2546,-6.94518
Italy,Santa maria di licodia,Gruppo bonomo s.p.a.,Citrus Fruits,,
Italy,Paterno',Andolfi paterno' srl,Citrus Fruits,37.56774,14.90569
Spain,Valencia,Naranjas ribera del júcar,Citrus Fruits,39.4689,-0.37686
Italy,Taurianova,Calabriajuice,Citrus Fruits,38.35826,16.01408
Spain,Villarreal,Piben fruits sl,Citrus Fruits,,
Turkey,Mersin,Cayirogullari tarim ve orman urun.tic.san.ltd.,Citrus Fruits,36.7999,34.6342
Egypt,Alexandria,Nubafarm agricultural development co,Citrus Fruits,31.2105,29.9125
Turkey,Istanbul,"Ltbs co.,",Citrus Fruits,41.062,28.9888
Egypt,Cairo,Elwadi export co for agricultural products,Citrus Fruits,30.0443,31.2353
Greece,Argos,Sofroniadis fruits & vegetables,Citrus Fruits,,
Spain,Vitoria-gazteiz,Uria export,Citrus Fruits,,
Greece,Rafina,V. k. fresh fruit ltd.,Citrus Fruits,,
Egypt,Domiatta,Charcoalegypt,Citrus Fruits,,
Turkey,Fethiye,Aegean independent exports,Citrus Fruits,,
Italy,San gregorio di catania,Brancati melita aspasia,Citrus Fruits,,
Italy,Cassano allo ionio,Societa' agricola morsilva ss,Citrus Fruits,,
Turkey,Manavgat,Inci international fruits,Citrus Fruits,36.7883,31.4514
Spain,Picassent-valencia,Terrabona coop. v,Citrus Fruits,,
Egypt,Alexandria,Egypt valley for exporting agricultural products,Citrus Fruits,31.2105,29.9125
Turkey,Mersin,Celiller for importing and exporting fruits and vegetables,Citrus Fruits,36.7999,34.6342
Morocco,Marrakech,Gemo atlas sarl,Citrus Fruits,31.6338,-8.00222
Morocco,Ouled teima,Riad souss export   sarl,Citrus Fruits,,
Egypt,Giza,Ganetelzohor,Citrus Fruits,,
Spain,Mont-ras,Greenfood iberica,Citrus Fruits,,
Netherlands,Vleuten,Handelsmaatschappij jan oskam,Citrus Fruits,,
Germany,Frankfurt am main,Solar inter ug,Citrus Fruits,50.1121,8.68342
France,Saint jean de luz,Herbamms,Citrus Fruits,,
Italy,Palagonia,Coffi-golita,Citrus Fruits,37.3289,14.74613
Turkey,Silifke / mersin,Cengiz fruits,Citrus Fruits,,
Turkey,Manisa,Nidal fresh co,Citrus Fruits,,
Spain,Alicante,Gambin - citrus producer and exporter,Citrus Fruits,,
Egypt,Alexandria,Afrigoodgrow,Citrus Fruits,31.2105,29.9125
Turkey,Mersin,Freshanatolia,Citrus Fruits,36.7999,34.6342
Greece,Gythio,Greek citrus an. koumoutsakos & co,Citrus Fruits,,
Turkey,Adanalioglu mah.,Fikret degirmenci citrus,Citrus Fruits,,
Spain,Bigastro-alicante,Amefruits sl,Citrus Fruits,,
Turkey,Mersin,Packerman fruits,Citrus Fruits,36.7999,34.6342
Egypt,Alexandria,International traders,Citrus Fruits,31.2105,29.9125
Turkey,Adana,Sno tarim ve zirai islt / sno citrus turkey,Citrus Fruits,36.9857,35.325
Italy,Messina,Geima sas,Citrus Fruits,38.1784,15.5531
Egypt,Kom hamada,7stars for import&export,Citrus Fruits,,
Egypt,Giza,Egypt trade,Citrus Fruits,,
Turkey,Mugla,Gumus export ltd.,Citrus Fruits,,
Egypt,Alexandria,Egyptian and agriculture services and trade,Citrus Fruits,31.2105,29.9125
Turkey,Istanbul,Nmt logistics  &  foreign trade ltd,Citrus Fruits,41.062,28.9888
Turkey,Adana,Fruit turk,Citrus Fruits,36.9857,35.325
Turkey,Mersin,Inovamer co.,Citrus Fruits,36.7999,34.6342
Belgium,Roeselare,Superfruit,Fruits,,
Turkey,Aydin,Gold finger a.s.,Fruits,,
Germany,Wutha-farnroda,Fruchthof zipf-herbst gmbh,Fruits,,
Germany,Templin,Geko uckermärkische fruchthandelsgesellschaft mbh,Fruits,,
Belgium,Sibret,Valfrais,Fruits,,
Turkey,Izmir,Vefa ic ve dis tic ltd sti,Fruits,38.4262,27.1419
Egypt,Cairo,Eng,Fruits,30.0443,31.2353
Greece,Thessaloniki,Almar trade,Fruits,,
Italy,Castellana grotte (ba),Di palma & c. srl,Fruits,,
Belgium,Cuesmes,Hoes fruits,Fruits,,
Greece,Argos,Froutoasi,Fruits,,
Spain,Bollullos par del condado,Frutas maripi s l,Fruits,,
Turkey,Cay,Alacam agri,Fruits,,
Italy,Giarre,Special fruit s.a.s,Fruits,,
Turkey,Istanbul,Elis global inc.,Fruits,41.062,28.9888
Turkey,Stambul,Interasýa turizm dyş tijaret limited şirketi,Fruits,,
Spain,Barcelona,Logistica barna fruits s.l.,Fruits,,
France,St pol de leon,Sarl saillour l'aber,Fruits,,
Spain,Alicante,Ponytail,Fruits,,
Egypt,Cairo,Fruitica egypt,Fruits,30.0443,31.2353
Italy,Dugenta,La natura societa' agricola a responsabilita' limitata,Fruits,,
Poland,Błędów,Goldfruit,Fruits,,
Germany,Meldorf,Kronprinz obst- und gemüseverarbeitung gmbh,Fruits,,
Belgium,Naninne,Difalux,Fruits,,
Germany,Letschin,Odega frischgemüsehandel & rohkonserven gmbh,Fruits,,
Germany,Stadtallendorf,Pilzzucht hesse e.k.,Fruits,,
Germany,Plattling,Donau gemüse - handels gmbh,Fruits,,
Greece,Kavala,Stefanidou asimenia,Fruits,,
Poland,Katowice,Fhu claudia,Fruits,,
Germany,Velbert,Lorenz-kaufmann,Fruits,,
Spain,Barcelona,Hispatrade,Fruits,,
Netherlands,Ridderkerk,"Jaguar, the fresh company b.v.",Fruits,,
Greece,Ag ioannhs renths,Elefthrakis-fruits,Fruits,,
Italy,Molinella,Agrifruit,Fruits,,
France,Brush,Vergers de briteste,Fruits,,
Germany,St. ingbert,Leo ochs fruchtagentur gmbh,Fruits,,
Italy,Rutigliano,Pontrelli grazia,Fruits,,
Greece,Giannitsa,Fruit-therapy,Fruits,,
Germany,Heinsberg,Leo randerath obstgrosshandel gmbh,Fruits,,
Turkey,Mersin,Donus ithalat ihracat ve ticaret a s,Fruits,36.7999,34.6342
Spain,Santa cruz de tenerife,All-fru scoop segundo grado,Fruits,,
Spain,Albatera,Frutas lo candel sl,Fruits,,
Spain,Lepe,Frupale sl,Fruits,,
Germany,München,Vela trade gmbh,Fruits,,
Germany,München,Hellas-frucht-import gmbh,Fruits,,
Germany,Nortorf,Obst- und gemüsegrosshandel gmbh & co.kg,Fruits,,
Germany,Crailsheim,Getränke-zeller gmbh,Fruits,,
Germany,Bünde,Getränke hilker inh. antonia haubold,Fruits,,
Germany,Frankfurt,Gawande grosshandel und vertrieb,Fruits,,
Germany,Halfing,Bionep gbr,Fruits,,
Netherlands,Winterswijk,Koos prins groenten en fruit b.v.,Fruits,,
Germany,Drage,Omni vertrieb kg,Fruits,,
France,Barbezieux saint hilaire,Fornel freres,Fruits,,
Germany,Herzogenrath,Lieferfrisch,Fruits,,
Germany,Enkirch,Niels rasmussen-bonne,Fruits,,
Turkey,Istanbul,Ticaret,Fruits,41.062,28.9888
Germany,Hamburg,Ernst t. wulff gmbh,Fruits,,
Germany,Weinstadt,Dr. manfred siglinger,Fruits,,
Germany,Dieblich,Obstbau und brennerei schäfer,Fruits,,
Germany,Neckargemünd,Gaul handel mit obst und gemüse,Fruits,,
Germany,Hamburg,"Helal bazar gmbh lieferant für obst,gemüse & feinkost",Fruits,,
Germany,Bremen,Suhling fruchthandel gmbh,Fruits,,
Spain,Cártama,Llévale frutas,Fruits,,
Greece,Moschato,Fashion fruits,Fruits,,
Germany,Düsseldorf,Mr. fruit e.k.,Fruits,,
Germany,Moers,K h m,Fruits,,
Peru,Lima,Tytglobal,Fruits,-12.0561,-77.0268
Belgium,Kortrijk,Fruithandel callens,Fruits,,
Turkey,Izmir,Egea food,Fruits,38.4262,27.1419
Germany,Leipzig,Hansen obst inh. claus hansen,Fruits,,
Germany,Plauen,Hansen obst inh. claus hansen,Fruits,,
Germany,Seevetal,Behr ag,Fruits,,
Belgium,Brussel,Guido fruit,Fruits,,
Poland,Głowno,Brzeski fruit group,Fruits,,
Germany,Wurzen,Wurzen-obst gmbh,Fruits,,
Germany,Landsberg,Hansen obst inh. claus hansen,Fruits,,
Germany,Erfurt,Hansen obst inh. claus hansen,Fruits,,
Germany,Gera,Hansen obst inh. claus hansen,Fruits,,
Germany,Magdeburg,Hansen obst inh. claus hansen,Fruits,,
Belgium,Bruxelles,Starfruit company,Fruits,50.8444,4.35609
Germany,Pölzig,Pölziger fruchtsäfte gmbh,Fruits,,
Germany,Hamburg,Dieter kupka & söhne gmbh,Fruits,,
Spain,Barcelona,Expo fruits,Fruits,,
Germany,Stuttgart,Michael frey,Fruits,,
France,Lomme,Sarl leclaire,Fruits,,
Germany,Erfurt,Hansen obst inh. claus hansen,Fruits,,
Germany,Putlitz,Kartoffel-& gemüseveredlung prignitzland gmbh,Fruits,,
Germany,Mutterstadt,Peter fehmel,Fruits,,
Belgium,Roeselare,Vanhuyse louis,Fruits,,
Germany,Düsseldorf,Keller & kalmbach widex gmbh,Fruits,,
Germany,Seevetal,Behr ag,Fruits,,
Poland,Głowno,Brzeski fruit group,Fruits,,
Germany,Piding,Maier gmbh,Fruits,,
Peru,Lima,Tytglobal,Fruits,-12.0561,-77.0268
Belgium,Floriffoux,Floreffe legumes,Fruits,,
Germany,Schönberg,Schönberger gemüsehof gmbh,Fruits,,
Germany,München,S a f t i n o,Fruits,,
Germany,Leipzig,Hansen obst inh. claus hansen,Fruits,,
Germany,Weiterstadt,Bauer lipp,Fruits,,
Germany,Kappelrodeck,F. w. schneider & co. inh. jochen schneider,Fruits,,
Germany,Göcklingen,Hartmut keller,Fruits,,
Germany,München,Hermann fischer betriebs gmbh,Fruits,,
Germany,Radolfzell,Stumpf-eiselein,Fruits,,
Germany,Wiesbaden,Matsch & brei kelterei und ökoweinhandel,Fruits,,
Germany,Dollem,Lührs fruchtgrosshandel gmbh,Fruits,,
Germany,Ellhofen,Heinz kircher gmbh,Fruits,,
Germany,Kunreuth,Geist-reich,Fruits,,
Germany,Gera,Hansen obst inh. claus hansen,Fruits,,
Turkey,Izmir,Egea food,Fruits,38.4262,27.1419
Germany,Leipzig,Hansen obst inh. claus hansen,Fruits,,
Germany,Völklingen,Himbert gmbh,Fruits,,
Belgium,Ardooie,Calsa,Fruits,,
Germany,Hamburg,Obstbaron hamburg,Fruits,,
Germany,Bestensee,Gregor scholz,Fruits,,
Germany,Passau,Josef ortmeier e.k.,Fruits,,
Belgium,Merksem,Broeckaert,Fruits,,
Spain,Barcelona,Expo fruits,Fruits,,
Germany,Durmersheim,Dr. koffler-haitz international gmbh & co. kg,Fruits,,
Belgium,Sint-katelijne-waver,Nova - veg logistics,Fruits,,
Germany,Bönnigheim,Weinkellerei kölle gbr,Fruits,,
Germany,Mühlhausen-ehingen,Wilhelm auer,Fruits,,
Germany,Erden,Weingut meulenhof,Fruits,,
Germany,Großpostwitz,Kelterei dressler,Fruits,,
Germany,Mönchpfiffel-nikolausrieth,Klostergut mönchpfiffel gmbh,Fruits,,
Germany,Pommern,Schneiders,Fruits,,
Germany,Lahr,Mussler früchtedienst gmbh,Fruits,,
Germany,Bedburg,Gps-gemüse-produkt-service,Fruits,,
Germany,Düsseldorf,Biodirekt gmbh,Fruits,,
Germany,Harrislee,Tropifruit gmbh & co. kg,Fruits,,
Germany,Westhofen,Weingut günther groebe & sohn,Fruits,,
Italy,San nicolò,Maini frutta s.r.l.,Fruits,,
Germany,Ravensburg,Öko-obst-blank ohg,Fruits,,
Germany,Berghaupten,Obsthof brennerei bruder gbr,Fruits,,
Germany,Ranschbach,Ökologisches wein- und sektgut franz braun,Fruits,,
Germany,Mühlhausen-ehingen,Wilhelm auer,Fruits,,
Germany,Düsseldorf,Biodirekt gmbh,Fruits,,
Germany,Neuenkirchen,Döhler neuenkirchen gmbh,Fruits,,
Germany,Mönchpfiffel-nikolausrieth,Klostergut mönchpfiffel gmbh,Fruits,,
Germany,Ebstorf,"Preiss agrar, handel & beratung",Fruits,,
Germany,Hannover,Hlf h. lotze fruchtimport und nahverkehr gmbh & co. kg,Fruits,,
Germany,Durmersheim,Dr. koffler-haitz international gmbh & co. kg,Fruits,,
Germany,Lorch,Uwe steinle,Fruits,,
Germany,Löwenstein,Winzer vom weinsberger tal eg,Fruits,,
Poland,Grójec,F.u.h. vikob,Fruits,,
Germany,Berlin,Fruit box berlin gmbh,Fruits,,
Germany,Laudert,Floramed gmbh,Fruits,,
Germany,Gierstädt,Obst und gemüse markt thüringen gmbh,Fruits,,
Germany,München,Beim trübenecker.de,Fruits,,
Germany,München,Gottfried santifaller gmbh,Fruits,,
Germany,Düsseldorf,Biodirekt gmbh,Fruits,,
Germany,Bornheim,Centralmarkt roisdorf straelen gmbh & co kg,Fruits,,
Germany,Düren,Biofruit gmbh,Fruits,,
Germany,Edesheim,Weingut reinhard wörner,Fruits,,
Germany,Hollern-twielenfleth,Obsthof von schassen,Fruits,,
Germany,Rehden,Hof dehlfing handels gmbh,Fruits,,
Germany,Saarlouis,Johannes gmbh & co. kg,Fruits,,
Germany,Dollerup,Dollerruper destille inh. manfred weyrauch,Fruits,,
Germany,Mühlhausen-ehingen,Wilhelm auer,Fruits,,
Germany,Erpolzheim,Weingut herbert koob & sohn,Fruits,,
Germany,Bechtheim,Bastianshauser hof sebastian & ralf erbeldinger,Fruits,,
Germany,Hochborn,Weinkellerei h. mankel gmbh,Fruits,,
Germany,Lahr,Mussler früchtedienst gmbh,Fruits,,
Germany,Großheubach,Kremers winzerhof,Fruits,,
Germany,Seligenstadt,Kronenfrucht gmbh,Fruits,,
Germany,Neuenkirchen,Döhler neuenkirchen gmbh,Fruits,,
Germany,Maring-noviand,Timo dienhart,Fruits,,
Germany,Triefenstein,Hartwig martin,Fruits,,
Germany,Hannover,Hlf h. lotze fruchtimport und nahverkehr gmbh & co. kg,Fruits,,
Germany,Mülheim,Weingut mauch-michels,Fruits,,
Germany,Berlin,Fruit box berlin gmbh,Fruits,,
Germany,Bingen,Austria juice service & logistik gmbh,Fruits,,
Germany,Bad hönningen,Bad hönninger fruchtsäfte und weine gmbh,Fruits,,
Germany,Nürnberg,Obsthandel sellerer,Fruits,,
Germany,Wiesbaden,Bucak früchte gmbh,Fruits,,
Germany,Schotten,Früchtegrosshandel heinbach inh. volker heinbach,Fruits,,
Germany,Viernheim,Sachsenhof landhandel und grossküchenservice-gmbh,Fruits,,
Germany,Krummendeich,Obsthof schmoldt handels gmbh & co. kg,Fruits,,
Germany,Rinteln,Riha wesergold getränke gmbh & co kg,Fruits,,
Germany,Frankfurt,Dieter meyer gmbh,Fruits,,
Germany,Hainfeld,Weingut edgar u. anreas lutz gbr,Fruits,,
Germany,Wallerfing,Gäuboden gemüse handels gmbh,Fruits,,
Germany,Katlenburg-lindau,Katlenburger kellerei gmbh & co. kg,Fruits,,
Germany,München,Fruitique martin sutor und philipp müller gbr,Fruits,,
Germany,Landau,Günter u. simone geissert ug (haftungsbeschränkt),Fruits,,
Germany,Wiesbaden,Bucak früchte gmbh,Fruits,,
Germany,Heiligenhaus,Ernst dalbeck gbr,Fruits,,
Germany,Weinstadt,Weingut wolfgang klopfer,Fruits,,
Germany,Nürnberg,Obsthandel sellerer,Fruits,,
Germany,Sulzburg,Claudia schlumberger-bernhart,Fruits,,
Germany,Welsleben,Natho´s säfte gmbh,Fruits,,
Germany,Bielefeld,Gebr. schuleit gmbh & co. kg,Fruits,,
Germany,Remshalden,Gebr. knauer gmbh & co kg,Fruits,,
Germany,Rothenburg,Rothenburger marktfrisch verarbeitungs- und handelsgesellschaft mbh,Fruits,,
Germany,Bruchköbel,Kelterei walther gmbh,Fruits,,
Germany,Oldenburg,A + s frucht gmbh & co. kg,Fruits,,
Belgium,Kortemark,Bonduelle northern europe,Fruits,,
Germany,Pommern,Schneiders,Fruits,,
Germany,Bedburg,Gps-gemüse-produkt-service,Fruits,,
Germany,Heiligenhaus,Ernst dalbeck gbr,Fruits,,
Germany,Frankfurt,Dieter meyer gmbh,Fruits,,
Germany,Mühlenbeck,Der heidelbeer - obstbau mike emmerich,Fruits,,
Germany,Welsleben,Natho´s säfte gmbh,Fruits,,
Germany,Pommern,Schneiders,Fruits,,
Germany,Remshalden,Gebr. knauer gmbh & co kg,Fruits,,
Germany,Norderstedt,Obstline gmbh,Fruits,,
Germany,Nürnberg,Obsthandel sellerer,Fruits,,
Germany,Velbert,"Privatkellerei ""wilde weine"" frank may",Fruits,,
Germany,Igensdorf,Absatz- und verwertungsgenossenschaft für obst und gartenbauerzeugnisse igensdorf und umgebung eg,Fruits,,
Germany,Pfedelbach,Roland dietz,Fruits,,
Germany,Nörvenich,Bkl beerenobst-kulturen levenig gmbh & co. kg,Fruits,,
Germany,Lügde,Marx obstsäfte,Fruits,,
Germany,Neuffen,Weingärtnergenossenschaft hohenneuffen-teck eg,Fruits,,
Germany,Rinteln,Riha wesergold getränke gmbh & co kg,Fruits,,
Germany,Haigerloch,Hurm & sinn obst gemüse südfrüchte,Fruits,,
Belgium,Herk-de-stad,Dirafrost,Fruits,,
Germany,Nierstein,Michael günther,Fruits,,
Germany,Eltville,Weingut jakob jung,Fruits,,
Germany,Laupheim,Gemüse botzenhard gmbh & co. kg gmbh & co. kg,Fruits,,
Germany,Ahaus,Wolfgang miedecke,Fruits,,
Germany,Sulzburg,Claudia schlumberger-bernhart,Fruits,,
Germany,Worms,Hagenbräu gasthaus worms gmbh & co.kg,Fruits,,
Germany,Bissersheim,Tobias mussler und arnold mussler,Fruits,,
Germany,Beyernaumburg,Südharz obst gmbh,Fruits,,
Germany,Frankfurt,Dieter meyer gmbh,Fruits,,
Germany,Ravensburg,Öko-obst-blank ohg,Fruits,,
Germany,Fußgönheim,Weicker & drumm gbr,Fruits,,
Germany,München,Fruitique martin sutor und philipp müller gbr,Fruits,,
Germany,Abensberg,Jobst fruchtgrosshandel - sauerkrautfabrik e.k.,Fruits,,
Germany,Geisenheim,Hochschule geisenheim,Fruits,,
Germany,Biebelnheim,Weingut dexheimer jochen dexheimer,Fruits,,
Germany,Cadolzburg,Fruchtgrosshandel schepp,Fruits,,
Germany,Koblenz,Fruchthof gleichmann gmbh,Fruits,,
Germany,Willingen,"Alfred querl, inh. friedrich reinhold",Fruits,,
Germany,Düsseldorf,Fruiton gmbh,Fruits,,
Germany,Schweigen-rechtenbach,Weingut cuntz & scheu,Fruits,,
Germany,Hollern-twielenfleth,Obsthof von schassen,Fruits,,
Germany,Bingen,Austria juice service & logistik gmbh,Fruits,,
Germany,Bad hönningen,Bad hönninger fruchtsäfte und weine gmbh,Fruits,,
Germany,Landau,Günter u. simone geissert ug (haftungsbeschränkt),Fruits,,
Germany,Neuenkirchen,Döhler neuenkirchen gmbh,Fruits,,
Germany,Kempen,J.h. wagenaar import-export gmbh,Fruits,,
Germany,München,Josef goldstein fruchtimport-export gmbh,Fruits,,
Germany,Dollerup,Dollerruper destille inh. manfred weyrauch,Fruits,,
Germany,Westhofen,Weingut günther groebe & sohn,Fruits,,
Germany,Alfter,Getränkefachverlag rowira - thomas und rolf windeck ohg,Fruits,,
Germany,Bornheim,Obst orth gmbh,Fruits,,
Germany,Ebstorf,"Preiss agrar, handel & beratung",Fruits,,
Germany,Mutterstadt,Pfalz fresh gmbh,Fruits,,
Germany,Triefenstein,Hartwig martin,Fruits,,
Germany,Geisenheim,Hochschule geisenheim,Fruits,,
Germany,Trittenheim,Ernst bollig,Fruits,,
Germany,Biebelnheim,Weingut dexheimer jochen dexheimer,Fruits,,
Germany,Koblenz,Fruchthof gleichmann gmbh,Fruits,,
Germany,Willingen,"Alfred querl, inh. friedrich reinhold",Fruits,,
Germany,Mössingen,Hermann streib,Fruits,,
Germany,Hamburg,Hinrich matthies gmbh,Fruits,,
Germany,Dettelbach,Apfelhof zörner,Fruits,,
Germany,Mutterstadt,Pfalz fresh gmbh,Fruits,,
Germany,Nürnberg,Schweiger-lehneis obst & gemüse gmbh,Fruits,,
Germany,Aachen,Merimex fruchthandelsgesellschaft mbh,Fruits,,
Germany,Korb,Hermann schmalzried,Fruits,,
Germany,Kehl,Novi-fruchthandel gmbh,Fruits,,
Germany,Bahlingen,Heinz-peter trautwein und elfriede trautwein,Fruits,,
Germany,Burscheid,Obstanlagen mönchhof norbert stamm,Fruits,,
Germany,Hamburg,Exotic fruchtimport g.m.b.h.,Fruits,,
Germany,Frankfurt,Proimpex gmbh,Fruits,,
Germany,Stuttgart,Widerker beverages gmbh,Fruits,,
Italy,San nicolò,Maini frutta s.r.l.,Fruits,,
Germany,Kehl,Novi-fruchthandel gmbh,Fruits,,
Germany,Fußgönheim,Weicker & drumm gbr,Fruits,,
Poland,Dzialoszyn,Almar zaklad przetwórstwa owoców i warzyw marian beben,Fruits,,
Germany,Thörnich,Otto blesius-jostock,Fruits,,
Germany,Mülheim,Weingut mauch-michels,Fruits,,
Germany,Trittenheim,Ernst bollig,Fruits,,
Germany,Niederkassel,Nöbel früchte fruchtgrosshandel j. nöbel gmbh,Fruits,,
Germany,Appenweier,Huco-frischfrucht gmbh,Fruits,,
Germany,Friedrichskoog,Maren beckmann gmbh,Fruits,,
Germany,Hanau,Frischmarkt hain,Fruits,,
Germany,Krefeld,Stoffers kg,Fruits,,
Germany,Löwenstein,Winzer vom weinsberger tal eg,Fruits,,
Germany,Frankfurt,Yavuz gmbh,Fruits,,
Belgium,Herk-de-stad,Dirafrost,Fruits,,
Germany,Neuss,Heinrich hüsgen,Fruits,,
Germany,Mössingen,Hermann streib,Fruits,,
Germany,Wesseling,Fruchthansa gmbh,Fruits,,
Germany,Bornheim,Centralmarkt roisdorf straelen gmbh & co kg,Fruits,,
Belgium,Antwerpen,Vawi,Fruits,,
Italy,Trento,Apot societa' cooperativa agricola,Fruits,46.07,11.1193
Poland,Belsk duzy,"Activ. centrum zaopatrzenia ogrodnictwa, ekspor owocow i warzyw",Fruits,,
Belgium,Bruxelles,Frudicom,Fruits,50.8444,4.35609
Italy,Revello,S.e.p.o. spa,Fruits,,
Spain,Quintanar de la orden,Capsa marca s.l.,Fruits,,
Belgium,Duffel,Bpk duffel,Fruits,,
Belgium,Sint-truiden,Belgische fruitveiling,Fruits,,
Poland,Warszawa,Tuti fruti,Fruits,,
France,Moissac,Albafruit,Fruits,,
Belgium,Antwerpen,Fruithandel sebrechts,Fruits,,
Belgium,Pepingen,Pajottenlander,Fruits,,
France,Cavaillon,Pronatura,Fruits,,
Netherlands,Poeldijk,Witkamp,Fruits,,
Germany,München,Fruitique martin sutor und philipp müller gbr,Fruits,,
Germany,Bechtheim,Bastianshauser hof sebastian & ralf erbeldinger,Fruits,,
Italy,San nicolò,Maini frutta s.r.l.,Fruits,,
Germany,Rosenfeld,Günther-lehner-stiftung gmbh,Fruits,,
Germany,Ravensburg,Öko-obst-blank ohg,Fruits,,
Germany,Weiterstadt,Bauer lipp,Fruits,,
Germany,Wesseling,Fruchthansa gmbh,Fruits,,
Germany,Stuttgart,Widerker beverages gmbh,Fruits,,
Germany,Dettelbach,Apfelhof zörner,Fruits,,
Spain,Xeresa,Jose manuel pardo s.l.,Fruits,39.0117,-0.21756
Spain,Tortosa,Coop agricola de bitem s.c.c.l.,Fruits,40.8129,0.52047
Belgium,Verlaine,Buttiens fruits,Fruits,,
Spain,Cieza-murcia,Thader cieza,Fruits,,
France,Villegouge,Agence gadan heugas,Fruits,,
Turkey,Istanbul,"Ltbs co.,",Fruits,41.062,28.9888
Spain,Massalcoreig,Fruitoni (toni ballesté sl),Fruits,,
Spain,Madrid,Agrofortex fruit and vegetables s.l,Fruits,40.4196,-3.69196
Greece,Kalamata,Fruits & vegetables exporters siampis bas. & co.,Fruits,,
Germany,Salem,Salem-frucht gmbh & co. kg,Fruits,,
Egypt,Tanta,Anb economical group,Fruits,,
Spain,Móra d'ebre-tarragona,Fruites gines gon,Fruits,,
Egypt,Rashied,Ever fresh,Fruits,,
Italy,Saluzzo,Gullino import-export srl,Fruits,,
Egypt,Cairo,La tulipe,Fruits,30.0443,31.2353
Turkey,Bursa,Sum fresh gida tarim san ve.tic.ltd.sti.,Fruits,,
Belgium,Antwerpen,Fruithandel sebrechts,Fruits,,
Belgium,Sint-truiden,Belgische fruitveiling,Fruits,,
France,Cavaillon,Pronatura,Fruits,,
Italy,Carini (pa),Il castello cooperativa arl,Fruits,38.132,13.1814
Spain,Moncofa,Sociedad de exportacion de agrios n 2 de moncofar coop valencia,Fruits,39.8068,-0.14304
Spain,Murcia,Hermanos perez marin sl,Fruits,37.9831,-1.13139
Spain,Santomera,Santomera agricola export sa,Fruits,38.0597,-1.04843
Spain,Xeresa,Ferragud e hijos sl,Fruits,39.0117,-0.21756
Spain,Bigastro,Citricos bigastro coop v de bigastro,Fruits,,
Spain,Catadau,Agricola de catadau s coop v ltda,Fruits,39.2726,-0.57499
Spain,Loriguilla,Citrival sa,Fruits,39.4887,-0.56801
Spain,Murcia,Limones tomas s.l.,Fruits,37.9831,-1.13139
Spain,Meliana,Enrique tamarit montalt sa,Fruits,39.5299,-0.35301
Spain,Valencia,Juan rubert sl,Fruits,39.4689,-0.37686
Spain,Palma del rio,Sunaran sociedad coop andaluza,Fruits,37.7005,-5.27974
Spain,Sevilla,Sat num 3813 nuestra senora del mar de responsabilidad limitada,Fruits,37.3879,-6.00197
France,Capesterre belle eau,Soc agricole de fonds cacao sa,Fruits,16.0521,-61.566
Spain,Bellreguard,Cooperativa agricola san miguel de bellreguart,Fruits,38.9466,-0.16301
Spain,Murcia,Garcia aranda sl,Fruits,37.9831,-1.13139
Spain,Alfara de algimia,Mayen citricos s.l.,Fruits,39.7543,-0.36107
Spain,Elche,Agrod elx sociedad cooperativa,Fruits,38.2635,-0.69941
Spain,Beniel,Agroeuro cooperativa agricola,Fruits,38.0458,-1.00187
France,St martin de crau,Sc la grand crau,Fruits,18.0255,-63.0446
Spain,Arboleas,Andalucia exportaciones sa,Fruits,37.3525,-2.07505
Spain,Tarragona,Centro gerencial compras s a,Fruits,41.117,1.25386
Spain,La pobla llarga,Sat n 126 cv serena,Fruits,39.0884,-0.47463
Spain,Picassent,Cooperativa agricola san isidro labrador cooperativa valenciana,Fruits,39.3633,-0.45981
Spain,Alcasser,Agricola san jose de alcacer sdad coop valenciana,Fruits,39.3652,-0.44532
Spain,Beniel,Citricos purimar s.l.,Fruits,38.0458,-1.00187
Spain,Sagunto,Coop agricola del valle del palancia coop valencia,Fruits,39.68,-0.27837
Spain,Alosno,Citricos tharsis s.a.,Fruits,,
Spain,Sagunto,Frutas ros y torres s.l.,Fruits,39.68,-0.27837
Spain,Murcia,Palacios munoz murcia sl,Fruits,37.9831,-1.13139
Spain,Santomera,Santomera agricola export sa,Fruits,38.0597,-1.04843
Italy,Capri leone (me),A.p.o. assoc.produttori ortofrutticoli,Fruits,38.0854,14.7279
Spain,Moncofa,Sat n 9932 fast fruit,Fruits,39.8068,-0.14304
Spain,Beniel,Agroeuro cooperativa agricola,Fruits,38.0458,-1.00187
Spain,Valencia,Hijos de federico lis sa,Fruits,39.4689,-0.37686
Italy,Floridia (sr),Euroagrumi srl,Fruits,37.0864,15.1423
Spain,Xativa,Comercial alavesa sa,Fruits,38.9935,-0.52007
Spain,Madrid,Inter regional agricola s.l.,Fruits,40.4196,-3.69196
Spain,Castellon,Sat masia canos hermanos de responsabilidad limitada n 7268,Fruits,39.9852,-0.04594
Spain,Albal,Agricola sagrado corazon de jesus de albal coop valenciana,Fruits,39.3972,-0.41444
Spain,Almussafes,Citricos y cebollas de almusafes s.l.,Fruits,39.293,-0.41219
Spain,Murcia,Citricos murcia,Fruits,37.9831,-1.13139
Spain,Algemesi,Coop agricola sagrado corazon de jesus coop v algemesi,Fruits,39.1963,-0.43836
France,Saint claude,Les producteurs de guadeloupe,Fruits,46.3929,5.86449
Spain,Bilbao,Lemona industrial sa,Fruits,43.2689,-2.9453
Spain,Xeresa,Fruxeresa sl,Fruits,39.0117,-0.21756
Spain,Isla cristina,Huerta noble sl,Fruits,37.202,-7.32045
Spain,Jacarilla,Agricola del segura sa,Fruits,38.0616,-0.86817
Spain,Artana,Artan frut coop v,Fruits,39.8907,-0.25436
Italy,Corigliano calabro (cs),Gencarelli egidio,Fruits,39.5979,16.5189
Italy,Carini (pa),Il castello cooperativa arl,Fruits,38.132,13.1814
Spain,Moncofa,Sociedad de exportacion de agrios n 2 de moncofar coop valencia,Fruits,39.8068,-0.14304
Spain,Murcia,Hermanos perez marin sl,Fruits,37.9831,-1.13139
Spain,La pobla llarga,Antonio muñoz y cia sa,Fruits,39.0884,-0.47463
Spain,Xeresa,Ferragud e hijos sl,Fruits,39.0117,-0.21756
Spain,Bigastro,Citricos bigastro coop v de bigastro,Fruits,,
Spain,Palma de gandia,"Cooperativa agricola san miguel de palma de gandia, coop. valenciana",Fruits,38.923,-0.22282
France,Rouen,Pierre craignou sa,Fruits,,
Spain,A coruña,Frutas rios s.l.,Fruits,,
Spain,Telde,Hermanos ramirez ramirez sl,Fruits,,
Spain,Madrid,Carlos gomez sl,Fruits,40.4196,-3.69196
Poland,Skierniewice,Przedsiebiorstwo produkcyjno handlowo uslugowe tekspod jolanta i jozef orlowscy export imp,Fruits,,
Spain,A coruña,Naranjas ibañez sl,Fruits,,
Spain,Sant cebria de vallalta,Productes agricoles carreras sa,Fruits,,
Spain,Huetor-tajar,Espahuetor sdad coop andaluza,Fruits,,
Spain,Calasparra,Perez martinez francisco,Fruits,,
Italy,Gallinaro,Azienda agricola tullio s.r.l.,Fruits,,
Italy,Livorno,Andi frutta di antonangeli enrico,Fruits,,
Spain,Daya nueva,Eco spain gomez garcia sl,Fruits,,
Turkey,Mersin,Toyasa tarim urunleri,Fruits,36.7999,34.6342
Belgium,Sint-katelijne-waver,Greenery belgium,Fruits,,
Italy,Viareggio,Dini - lari & c.snc,Fruits,,
Italy,Montefalco,Cantina le cimate,Fruits,,
Spain,Villanueva de la cañada,Sociedad agropecuaria española sa,Fruits,,
Spain,Almazora,Vicente vilar morella sl,Fruits,39.4848,-0.37096
Spain,Almazora,Agrimarba s.a.,Fruits,39.4848,-0.37096
Spain,Murcia,Scorpyus fruits sa,Fruits,37.9831,-1.13139
Spain,Murcia,Raimundo garcia y cia sa,Fruits,37.9831,-1.13139
Spain,Moncofa,Sat n 9932 fast fruit,Fruits,39.8068,-0.14304
Spain,Guadassuar,Vicente ginestar fruits s.l.,Fruits,39.1882,-0.47855
Spain,Valencia,Agrisol consorcio de exportacion s.a.,Fruits,39.4689,-0.37686
Spain,Palma de gandia,"Cooperativa agricola san miguel de palma de gandia, coop. valenciana",Fruits,38.923,-0.22282
Spain,Castellon,Perez peiro sa,Fruits,39.9852,-0.04594
Spain,La pobla llarga,Antonio muñoz y cia sa,Fruits,39.0884,-0.47463
Spain,Palma,Bibifrut sl,Fruits,39.5715,2.64694
Spain,La rinconada,Productores unidos sevillanos sa.,Fruits,37.4929,-5.97825
Spain,Oliva,Convite s.a.,Fruits,38.9189,-0.11795
Spain,Bellvis,Sat fruitsa n 1396 cat,Fruits,,
Spain,Guimar,Coop agricola el calvario de guimar,Fruits,,
Spain,Puerto lumbreras,Sol de levante scl,Fruits,,
Spain,Alcala del rio,Mudapelo sa,Fruits,,
France,Compans,Riche sarl,Fruits,,
Italy,Faenza,Erbacci pier franco,Fruits,,
Italy,Chiaramonte gulfi,Chessari salvatore,Fruits,,
Italy,Montefalco,Cantina le cimate,Fruits,,
Spain,Roquetas de mar,Frutas playa sat n al005,Fruits,,
Italy,Peccioli,Azienda agricola la fornace,Fruits,,
France,Rouen,Pierre craignou sa,Fruits,,
Spain,Telde,Hermanos ramirez ramirez sl,Fruits,,
Spain,Madrid,Carlos gomez sl,Fruits,40.4196,-3.69196
Poland,Skierniewice,Przedsiebiorstwo produkcyjno handlowo uslugowe tekspod jolanta i jozef orlowscy export imp,Fruits,,
Spain,Sant cebria de vallalta,Productes agricoles carreras sa,Fruits,,
Spain,Huetor-tajar,Espahuetor sdad coop andaluza,Fruits,,
Spain,Calasparra,Perez martinez francisco,Fruits,,
Spain,Villanueva de la cañada,Sociedad agropecuaria española sa,Fruits,,
France,Montpellier,Prima fruits sarl,Fruits,,
Spain,Molina de segura,Frutas canavate sa,Fruits,,
Italy,Campiglia marittima,Pistolesi enzo & figli s.a.s.,Fruits,,
Italy,Rossano,Acri giovanni battista,Fruits,39.5759,16.6347
Italy,Ispica,Firera francesco,Fruits,36.7819,14.9098
Italy,Cerreto sannita,Di crosta carmela,Fruits,,
Italy,Grammichele,Pennisi giuseppe,Fruits,37.2159,14.6355
Spain,Chilches,"Antonio llusar y cia., s.l.",Fruits,39.7817,-0.18469
Italy,Viareggio,Dini - lari & c.snc,Fruits,,
Italy,San lorenzo maggiore,Caris di sanzari carlo amabile,Fruits,,
Italy,Ribera (ag),Biofruit srl,Fruits,37.5047,13.2723
Spain,Alcala de xivert,Frutas sorli s.r.l.,Fruits,40.3059,0.22602
Spain,Hinojosa del duque,Hilario aranda alcudia candido alcudia ramirez cb,Fruits,,
Spain,La rinconada,Productores unidos sevillanos sa.,Fruits,37.4929,-5.97825
Spain,Cantillana,Naranjales del guadalquivir sca,Fruits,,
Italy,Scordia,Associazione produttori agricoli cav.a.calleri,Fruits,37.2929,14.8493
Italy,Terlano,Thuile s.a.s. & co.,Fruits,,
Italy,Cogorno,Ferri fratelli,Fruits,,
Italy,Merano,Hauser luis,Fruits,,
Italy,Montefalco,Cantina le cimate,Fruits,,
Italy,Livorno,Andi frutta di antonangeli enrico,Fruits,,
Italy,Peccioli,Azienda agricola la fornace,Fruits,,
Spain,Llers,Fruites hurtos s. l.,Fruits,,
France,Nice,Dolla sa,Fruits,,
Italy,Ispica,Firera francesco,Fruits,36.7819,14.9098
Spain,Las palmas de gran canaria,Soaldea sl,Fruits,,
Italy,Vedelago,Bortoletto livio,Fruits,,
Spain,Lepe,Sdad coop and nuestra senora de la bella,Fruits,,
Italy,Tavarnelle val di pesa,Azienda agraria cerbaia,Fruits,,
Spain,Ecija,Sat n.  9616 frutas castilla,Fruits,,
Spain,Daya nueva,Eco spain gomez garcia sl,Fruits,,
Spain,Oliva,Convite s.a.,Fruits,38.9189,-0.11795
Italy,Peccioli,Azienda agricola la fornace,Fruits,,
Italy,Stornara,F.lli capolongo s.r.l.,Fruits,,
Italy,Vigasio,Societa agricola colpo cristian denis e andrea,Fruits,,
Spain,Puebla de guzman,Campo baldio de puebla de guzman s.l.,Fruits,,
Turkey,Mersin,Toyasa tarim urunleri,Fruits,36.7999,34.6342
Spain,Illar,Albentillas s coop and,Fruits,,
Italy,Andrano,Rizzo salvatore,Fruits,,
Italy,Canale,Azienda agricola di costa mario,Fruits,,
Italy,Alliste,De.ca ( s.r.l. ),Fruits,,
Italy,Sassari,Cattari maria gavina,Fruits,,
Italy,Vigliano d'asti,Tartagllino ezio,Fruits,,
Italy,Lanuvio,Colline laziali societa' a responsabilita' limitata semplificata,Fruits,,
Italy,Saluzzo,Banchio romualdo,Fruits,,
Italy,Torino,G.m.ortofrutticola srls,Fruits,,
Italy,Samugheo,Cantina sociale cooperativa a r l,Fruits,,
Italy,Rivergaro,Bonelli andrea,Fruits,,
Italy,Melfi,Da.li.la. bio - societa' agricola a responsabilita' limitata,Fruits,,
Spain,A coruna,Froitonoso scl,Fruits,,
Italy,Vittoria,Agri 2000 s.r.l.,Fruits,,
Italy,Terracina,La vita s.r.l.,Fruits,,
Italy,Perugia,Soc umbra banane s.r.l.,Fruits,,
Italy,Taviano,Punto legni s.r.l.,Fruits,,
Italy,Viadana,Sugarotti claudio,Fruits,,
Italy,Oderzo,Societa' agricola funghi della marca,Fruits,,
Spain,La pobla de vallbona,Garcia badia sl,Fruits,,
Spain,Santa cruz de tenerife,Norberto,Fruits,,
Spain,Hinojosa del duque,Hilario aranda alcudia candido alcudia ramirez cb,Fruits,,
Italy,Scicli,Padua massimo e c s.n.c.,Fruits,,
Italy,Pontedassio,Soc. sempl.agr. frantoio di potedassio s.s.,Fruits,,
Italy,Cogorno,Ferri fratelli,Fruits,,
Italy,Gambassi terme,Azienda agraria pietralta,Fruits,,
Italy,Vigasio,Societa agricola colpo cristian denis e andrea,Fruits,,
Spain,Gijon,Fruteros asturianos sa,Fruits,,
Spain,Elche/elx,Andres anton esclapez sl,Fruits,,
Italy,Centuripe,Gi. & ni. ortofrutta s.r.l.,Fruits,,
Italy,Cinigiano,Az. agr. antonini di antonini paola,Fruits,,
Italy,Bari,Franco luigi,Fruits,,
Italy,Savignano sul panaro,Cavedoni gianni,Fruits,,
Italy,Terlano,Thuile s.a.s. & co.,Fruits,,
Italy,Sessa aurunca,A.o.p. serena,Fruits,,
France,Briançon,Leon abeil & fils,Fruits,,
France,Asques,Sarl brun roland,Fruits,,
France,Loudun,Sarl diva sun,Fruits,,
Italy,Stornara,F.lli capolongo s.r.l.,Fruits,,
Spain,Santa cruz de tenerife,Norberto,Fruits,,
Spain,Alcala de xivert,Frutas sorli s.r.l.,Fruits,40.3059,0.22602
Spain,Montilla,Frutas carpio sociedad anonima laboral,Fruits,,
Italy,Orta nova,Mediterranea agricola s.r.l.,Fruits,,
Italy,Montevarchi,Casilli l. & figlio,Fruits,43.5213,11.5685
Italy,Tenna,Valcanover flavio,Fruits,,
Italy,Catania,Commerciale ortofrutticola sud - s.r.l.,Fruits,37.5114,15.0675
Spain,Cantillana,Naranjales del guadalquivir sca,Fruits,,
Spain,Tornabous,Fruits-casany-cornellana s.l.,Fruits,,
Spain,Alhaurin de la torre,Sanchez becerra hermanos sl,Fruits,36.662,-4.56649
Spain,Lorqui,Sdad coop agraria los valientes o.p.f.h. 606,Fruits,,
Italy,Gallinaro,Azienda agricola tullio s.r.l.,Fruits,,
Italy,Canale,Azienda agricola di costa mario,Fruits,,
Italy,Alliste,De.ca ( s.r.l. ),Fruits,,
Spain,A coruña,Frutas del fraile s.a.,Fruits,,
Italy,Sarzana,Sac s.r.l.,Fruits,,
Italy,Siracusa,Giustolisi rocco,Fruits,37.078,15.2813
Italy,Rutigliano,Redavid vitandrea,Fruits,,
Spain,Murcia,Hijos de alberto del cerro sl,Fruits,37.9831,-1.13139
Italy,Pollutri,Co.di.ta. s.n.c. di colangelo giovanni & c.,Fruits,,
Italy,Ragusa,Societa' agricola santa rosalia soc. coop.,Fruits,,
Italy,Rutigliano,Agricola torre guiducci di amodio e deflorio s.s.,Fruits,,
Italy,Alliste,Mirelli rita,Fruits,,
Italy,Roncade,Azienda agricola s. giovanni di bardi pancrazio,Fruits,,
Italy,Fermo,Azienda agricola monaldi edda,Fruits,,
Italy,Chieti,Lavanderia a - z,Fruits,,
Spain,Sant joan d'alacant,Saleman s a,Fruits,,
Spain,Ocaña,Hermanos vidal sl,Fruits,,
Italy,Volano,Raffaelli francesco,Fruits,,
Italy,Foligno,Buompadre angelo,Fruits,,
Italy,Cerreto guidi,Henrici sabine,Fruits,,
Italy,Acqui terme,Azienda agricola casc. sant'ubaldo,Fruits,,
Italy,Cesena,Cooperativa c.o.m. cesena,Fruits,,
Italy,Carinola,Goodfruit di migliozzi benito s.a.s.,Fruits,,
Spain,Guadassuar,Frutas beltran sl,Fruits,39.1882,-0.47855
Italy,Vittoria,Denaro e modica comm. ortofrutticoli srl,Fruits,,
Italy,Lillianes,Cooperativa ilriccio sc,Fruits,,
Italy,Pizzo,Azienda agricola di leo massimiliano,Fruits,,
Spain,Montilla,Frutas carpio sociedad anonima laboral,Fruits,,
Italy,Acireale,Societa' cooperativa n.o.e. nuovi orizzonti europei,Fruits,37.6125,15.1656
Spain,Miramar,Pomelos mbc sociedad limitada.,Fruits,,
Italy,Andrano,Rizzo salvatore,Fruits,,
Spain,Baena,Hermanos ordoñez jurado sa,Fruits,,
Italy,Zapponeta,Valentino angelo,Fruits,,
Spain,Málaga,Cutlimon,Fruits,,
Spain,Murcia,Frutas condiso s.l.,Fruits,37.9831,-1.13139
Spain,Agost,Horticola el jardin de las delicias sl,Fruits,,
Spain,El ejido,Union de agricultores sa,Fruits,,
Spain,Zaragoza,Mercacorreas sa,Fruits,,
Spain,Torre-pacheco,Gregal sociedad cooperativa,Fruits,,
France,Maurepas,Ste beillot,Fruits,,
Germany,Bad marienberg,Goltera gmbh & co. kg.,Fruits,,
France,Gellainville,Ste marco et danielou,Fruits,,
Turkey,Mersin,Gulerler citrus,Fruits,36.7999,34.6342
France,St laurent blangy,Rosello et fils,Fruits,,
Turkey,Istanbul,Metin zafer pazarlama ve dis ticaret ltd sti,Fruits,41.062,28.9888
France,Beziers,Ste  dolsa fruits,Fruits,,
Poland,Piotrkow trybunalski,Firma handlowa nowalijka renata wychowalek,Fruits,,
Italy,Treiso,Azienda agricola 'il crave'' di meinardi corrado,Fruits,,
Italy,San lorenzo maggiore,Caris di sanzari carlo amabile,Fruits,,
Italy,Piegaro,Idee dalla natura s.n.c. di buzzetti l. & c.,Fruits,,
Italy,Pagno,Cosa elio,Fruits,,
Spain,Miramar,Pomelos mbc sociedad limitada.,Fruits,,
Italy,Pontedassio,Soc. sempl.agr. frantoio di potedassio s.s.,Fruits,,
Italy,Sassari,Cattari maria gavina,Fruits,,
France,Montpellier,Prima fruits sarl,Fruits,,
Italy,Cogorno,Ferri fratelli,Fruits,,
France,Beziers,Ste  dolsa fruits,Fruits,,
France,Narbonne,Jacques marco et fils,Fruits,,
Spain,Agost,Horticola el jardin de las delicias sl,Fruits,,
Spain,Altea,Coop agricola de altea sclv,Fruits,38.6008,-0.0507
Italy,Cavallino-treporti,Societa' agricola la margherita di scarpa raffaele,Fruits,,
Italy,Manduria,I.i.s.s. l.einaudi,Fruits,,
Italy,Cerignola,Castellano pietro,Fruits,,
France,Vert st denis,Mag prim,Fruits,,
Italy,Rosolina,Cooperativa ortolani di rosolina,Fruits,,
Poland,Grojec,Pol agro spolka akcyjna mazowieckie zaklady przetworstwa rolno spozywczego,Fruits,,
Italy,Ginosa,D'attoli,Fruits,,
France,St girons,Despujols primeurs,Fruits,,
Spain,Murcia,Amgat citrus products s.a.,Fruits,37.9831,-1.13139
France,Rungis,Canovas et compagnie,Fruits,48.7492,2.35141
Spain,Alcala de xivert,Hermanos bruño sl,Fruits,40.3059,0.22602
France,Belfort du quercy,La pinede,Fruits,44.26962,1.5437
France,Perpignan,Sas arco fruits,Fruits,42.6982,2.88748
Spain,Santomera,Citromil sl,Fruits,38.0597,-1.04843
Spain,Oliva,Canamas hermanos sa,Fruits,38.9189,-0.11795
Spain,El ejido,Union de agricultores sa,Fruits,,
Spain,Zaragoza,Mercacorreas sa,Fruits,,
France,Rungis cedex,Del gaudio group,Fruits,48.7492,2.35141
Poland,Krakow,Consorfrut polska sp. z o.o.,Fruits,50.0605,19.9324
France,Tours,Estivin logistique services,Fruits,,
Italy,Villasor,Cooperativa agricola ortofrutticola villasor,Fruits,,
Spain,Puig,Angel teresa hermanos sa,Fruits,,
France,Corbas,Primeurs du sud est,Fruits,,
Netherlands,Ridderkerk,Zoutewelle import b.v.,Fruits,,
Germany,Vogtsburg,O g s obst- und gemüsevertrieb südbaden gmbh,Fruits,,
Netherlands,Bleiswijk,Haluco b.v.,Fruits,,
France,Vannes,Etablissements le roux,Fruits,,
Netherlands,Poeldijk,Anaco & greeve international b.v.,Fruits,,
Netherlands,Brielle,Tuinderij vers b.v.,Fruits,,
Peru,Piura,F & f sandoval sac,Fruits,-5.19219,-80.6283
Netherlands,Venlo,Klaas & co,Fruits,,
France,St girons,Despujols primeurs,Fruits,,
Spain,Murcia,Frutas poveda sa,Fruits,37.9831,-1.13139
France,Perpignan,Agrispa,Fruits,42.6982,2.88748
Italy,Rutigliano,F.lli rescina s.r.l.,Fruits,,
France,St laurent blangy,Rosello et fils,Fruits,,
Poland,Ozarow mazowiecki,Rolnicza spoldzielnia produkcyjna w duchnicach,Fruits,,
Belgium,Gistel,Duva fruit,Fruits,,
Belgium,Sint-katelijne-waver,Van dijk foods,Fruits,,
Poland,Bronisze,Imperium. grupa producentow warzyw,Fruits,,
Belgium,Dessel,Fruitmarkt cools,Fruits,,
Netherlands,Venlo,Klaas & co,Fruits,,
Spain,L'alcudia,Cooperativa agricola nuestra senora del oreto coop v,Fruits,,
France,Rungis cedex,Societe pierre desmettre & fils,Fruits,48.7492,2.35141
Peru,Piura,F & f sandoval sac,Fruits,-5.19219,-80.6283
Netherlands,Breda,Aartsenfruit breda b.v.,Fruits,,
Poland,Nowy sacz,Przedsiebiorstwo produkcyjno uslugowo handlowe polmex sp z o o,Fruits,49.621,20.7002
France,Vannes,Etablissements le roux,Fruits,,
Germany,Stuttgart,Andretta fruchtimport gmbh,Fruits,,
France,St julien de concelles,Nanteurop fl,Fruits,,
France,Marignac,Royal saveurs sas,Fruits,,
Spain,Puig,Angel teresa hermanos sa,Fruits,,
Germany,Konstanz,Fruchthof konstanz gmbh,Fruits,,
Spain,Barcelona,Frutas lucas sa,Fruits,,
Poland,Krakow,Consorfrut polska sp. z o.o.,Fruits,50.0605,19.9324
Spain,Huesca,Distribuciones correas s.l.,Fruits,,
France,Labatut,Prim land,Fruits,,
Germany,Leverkusen,Pott besitz gmbh & co. kg,Fruits,51.0332,6.98174
France,Tours,Estivin logistique services,Fruits,,
Spain,Cases d'alcaner-tarragona,Natur citrics,Fruits,,
Belgium,Bruxelles,Ringoot fruit,Fruits,50.8444,4.35609
Germany,Delmenhorst,Gärtnerhof sandhausen martin clausen und susanne niemeck gbr,Fruits,,
France,Maizey,Societe horticole marchal et compagnie,Fruits,,
Belgium,Rumbeke,Bovero trans,Fruits,,
Germany,Duisburg,Chiquita deutschland gmbh,Fruits,,
Italy,Ruvo di puglia,Cantatore fruit company srl,Fruits,,
Germany,Hamburg,Port international fruit gmbh,Fruits,,
Germany,Sassenberg,Kreienbaum gmbh,Fruits,,
Germany,Waldachtal,Gaiser kg,Fruits,48.4909,8.56581
Germany,Bienenbüttel,Gärtnerhof bienenbüttel gmbh,Fruits,,
Belgium,Ternat,Etablissements van damme,Fruits,,
Belgium,Sint-katelijne-waver,Van dijk foods,Fruits,,
Italy,Corato,Oirtofruttameridionale snc,Fruits,,
Greece,Arta,Krop,Fruits,39.6912,3.34846
Spain,Entrena-la rioja,Zanahorias medrano,Fruits,,
Spain,Picassent-valencia,Terrabona coop. v,Fruits,,
Egypt,Alexandria,El rowad corporation,Fruits,31.2105,29.9125
Spain,Cabezo de torres-murcia,Hijos de joaquín rodríguez sl,Fruits,,
Spain,Sanchonuño-segovia,Precocinados el campo,Fruits,,
Italy,Parabita,Ro.gr.an sr,Fruits,,
France,Phalempin,Verduyn france,Fruits,,
Belgium,Sint-katelijne-waver,Aartsenfruit,Fruits,,
Belgium,Geel,Euro gijbels,Fruits,,
Belgium,Sint-katelijne-waver,Belorta,Fruits,,
Belgium,Sint-katelijne-waver,Keirsmaekers en zoon wdk,Fruits,,
Belgium,Zelzate,K&f de pauw,Fruits,,
Belgium,Oostende,Achiel primeurs,Fruits,,
Belgium,Deinze,De meyer & co,Fruits,,
Germany,Stuttgart,Wilhelm röser gmbh,Fruits,,
Spain,Cases d'alcaner-tarragona,Natur citrics,Fruits,,
Germany,Löbnitz,Agrarprodukte löbnitz gmbh,Fruits,,
Germany,Duisburg,Univeg duisburg gmbh,Fruits,,
Morocco,Chtouka-ait baha,Bairouk fruits,Fruits,,
Italy,Bologna,Befer fruit srl,Fruits,,
Italy,Rutigliano,Meravigliosa,Fruits,,
Italy,Capaccio paestum,Ortofrutta desiderio s.r.l.,Fruits,,
Italy,Conversano,Coletta snc,Fruits,,
Italy,Avellino,Fruit italy di caliendo mario sas,Fruits,,
Netherlands,Amstelveen,M&m import & export,Fruits,,
Italy,San pietro in casale,Consorzio agribologna,Fruits,,
Italy,Bologna,Golden fruit srl,Fruits,,
Italy,Aprilia,Gruppo produttori agri' s.r.l.,Fruits,,
Italy,Porcari,Agricola gloria due s.r.l.,Fruits,,
Italy,Cisterna di latina,Agricollibio s.r.l.,Fruits,41.5942,12.824
Poland,Kraków,Fhu peterman piotr pawlowski,Fruits,,
Poland,Piekary śląskie,Alexis.,Fruits,,
Morocco,Agadir,Azerkouk export,Fruits,30.4202,-9.60394
Belgium,Arlon,Végépack,Fruits,,
Spain,Jamilena (jaén),Ajos y cebollas droesmar s.l.,Fruits,,
Spain,Alboraya-valencia,Frutas y verduras hermanos monrós,Fruits,,
France,Marseille,Equateur fruits,Fruits,43.2934,5.37132
Netherlands,Rotterdam,Frescon fruit direct bv,Fruits,,
Belgium,Borgloon,Bel'export,Fruits,,
Turkey,Istanbul,Nmt logistics  &  foreign trade ltd,Fruits,41.062,28.9888
Egypt,Cairo,Elwadi export co for agricultural products,Fruits,30.0443,31.2353
Spain,La almunia de doña godina,Agricola gil s.l.,Fruits,,
Spain,Tudela,Horticola tudelana sa,Vegetables,,
Spain,Montalban de cordoba,Coagramon sdad coop andaluza,Vegetables,,
Spain,Barcelona,Pilar garcía vasquez,Vegetables,,
Spain,Torre-pacheco,Mediterranea de ensalada sdad coop ltda,Vegetables,,
Spain,Barcelona,"Mushroom ltd, sl",Vegetables,,
Spain,Motril,Carchuna la palma sdad coop and,Vegetables,,
Poland,Mielec,Gospodarstwo ogrodnicze eko,Vegetables,,
Spain,Barcelona,Frutas pua s.l.,Vegetables,,
Poland,Bardo,Carota,Vegetables,,
Spain,Almeria,Import export unitrade spain sa,Vegetables,,
Spain,Almeria,Sat natural growers,Vegetables,,
Spain,Llanos de aridane,Sat num 5494 idafe,Vegetables,,
Spain,Cambrils,Verdcamp fruits sat n 1132 cat,Vegetables,,
France,Miribel,Sarl des grandes terres,Vegetables,,
Spain,La baneza,Productos agricolas cano sa,Vegetables,,
Spain,Murcia,Agrotomy s.l.,Vegetables,37.9831,-1.13139
Spain,Jaraiz de la vera,Union de productores de pimenton soc coop,Vegetables,,
Spain,Mazarron,Horticola de mazarron sa,Vegetables,,
Spain,Chozas de canales,Sat n 4201 family,Vegetables,,
Spain,Barcelona,Frutasa sa,Vegetables,,
Spain,Basauri,Frutas sologuren sa,Vegetables,,
Spain,Cuevas del almanzora,Explotaciones malagon sa,Vegetables,,
Spain,Orihuela,Sat 6386 vega baja,Vegetables,38.0817,-0.94487
Spain,Sant adria de besos,Fruicam s. l.,Vegetables,,
Spain,Tudela,Sat dos mil 635 na,Vegetables,,
Spain,Vilariño,Horsal scl,Vegetables,,
France,Noyelles en chaussee,La noyelloise oger pere et fils,Vegetables,,
Spain,Los palacios y villafranc,Hortupal sa,Vegetables,,
Spain,La orotava,Culpla sl,Vegetables,,
Spain,Sant jaume d'enveja,Catalan nurseries s.a.,Vegetables,,
Spain,Montalban de cordoba,Coagramon sdad coop andaluza,Vegetables,,
Spain,El ejido,San isidro labrador sca,Vegetables,,
France,Plounévez-lochrist,Sbel sarl,Vegetables,,
Spain,Viator,Casur sca,Vegetables,,
Spain,Vilagarcia de arousa,Frutas y hortalizas santa rita sl,Vegetables,,
Spain,Cambrils,Verdcamp fruits sat n 1132 cat,Vegetables,,
Spain,Murcia,Agrotomy s.l.,Vegetables,37.9831,-1.13139
Spain,Mazarron,Horticola de mazarron sa,Vegetables,,
Spain,Chozas de canales,Sat n 4201 family,Vegetables,,
Spain,Barcelona,Frutasa sa,Vegetables,,
Spain,Basauri,Frutas sologuren sa,Vegetables,,
Spain,Cuevas del almanzora,Explotaciones malagon sa,Vegetables,,
Spain,Orihuela,Sat 6386 vega baja,Vegetables,38.0817,-0.94487
Spain,Sant adria de besos,Fruicam s. l.,Vegetables,,
Spain,Tudela,Sat dos mil 635 na,Vegetables,,
Turkey,Mugla,Oso tic. sebze ve meyve ihracati,Vegetables,,
Spain,Vilariño,Horsal scl,Vegetables,,
Spain,Los palacios y villafranc,Hortupal sa,Vegetables,,
Spain,Roquetas de mar,Indalfrutas s.l.,Vegetables,,
Spain,Sant jaume d'enveja,Catalan nurseries s.a.,Vegetables,,
Spain,Vicar,Hortalizas indasur s.l.,Vegetables,,
Spain,Nijar,Sat hortofruticola al-0106,Vegetables,,
France,Marmande,De la cruz freres,Vegetables,,
France,Nomain,Endives de roupy,Vegetables,,
Spain,Jerez de la frontera,Royalcress sa,Vegetables,,
Spain,Molina de segura,Export onion sl,Vegetables,,
Spain,Motril,Vega costa motril sdad coop andaluza,Vegetables,,
Spain,Alhaurin el grande,Verduras tirado s.l.,Vegetables,,
Spain,Sevilla,Hijos de enrique martin sa,Vegetables,37.3879,-6.00197
Spain,Barcelona,Pilar garcía vasquez,Vegetables,,
Spain,Utrera,Explotaciones agricolas ayala sociedad limitada.,Vegetables,,
Spain,Puerto lumbreras,Agrico la hermita 32 s.l.,Vegetables,,
Spain,Rocafort,Jafeva sociedad limitada.,Vegetables,,
Spain,Fuente alamo de murcia,La forja sat n 4207 de resp limitada,Vegetables,,
France,Perpignan,Serfel,Vegetables,42.6982,2.88748
Spain,Escuzar,"Granavi, s.a.",Vegetables,,
Spain,Jaraiz de la vera,Union de productores de pimenton soc coop,Vegetables,,
Turkey,Polatli,Sebzedeposu,Vegetables,,
Spain,Vimianzo,Derivados del monte sl,Vegetables,,
Spain,Puig,Valenciana de hortalizas sociedad limitada.,Vegetables,,
Italy,Endine gaiano (bg),Centro lavorazioni agroalimentari di elisabetta e patrizia berlai (s.n.c.),Vegetables,,
Spain,Roquetas de mar,Frutas playa sat n al005,Vegetables,,
France,Rouen,Pierre craignou sa,Vegetables,,
Spain,A coruña,Frutas rios s.l.,Vegetables,,
Spain,Telde,Hermanos ramirez ramirez sl,Vegetables,,
Spain,Madrid,Carlos gomez sl,Vegetables,40.4196,-3.69196
Poland,Skierniewice,Przedsiebiorstwo produkcyjno handlowo uslugowe tekspod jolanta i jozef orlowscy export imp,Vegetables,,
Spain,Sant cebria de vallalta,Productes agricoles carreras sa,Vegetables,,
Belgium,Sint-katelijne-waver,Greenery belgium,Vegetables,,
Spain,Villanueva de la cañada,Sociedad agropecuaria española sa,Vegetables,,
France,Montpellier,Prima fruits sarl,Vegetables,,
Poland,Warszawa,Fresh product trybuł,Vegetables,,
Spain,Almenara,Torres hermanos y sucesores sa,Vegetables,,
Spain,San pedro del pinatar,Oleorresinas mar menor sociedad limitada.,Vegetables,,
Poland,Krakow,Agro ecco sp. z o.o.,Vegetables,50.0605,19.9324
Spain,Ecija,Enosaga sa,Vegetables,,
Spain,Jete,Nuestra sra de bodijar scl,Vegetables,,
Italy,Ispica (rg),Associazione tra produttori agricoli colle d'oro,Vegetables,,
Spain,Vicar,Agro organics soc coop andaluza,Vegetables,,
Spain,Almeria,Sat natural growers,Vegetables,,
Spain,Cuevas del almanzora,Domingo jose frutas y hortalizas sociedad limitada.,Vegetables,,
Spain,Redovan,Joanru sl,Vegetables,,
Spain,La mojonera,Agrolumar s a,Vegetables,,
Spain,Barcelona,Carmen fornermiqel,Vegetables,,
Poland,Bardo,Carota,Vegetables,,
Spain,Barcelona,Frutas pua s.l.,Vegetables,,
Spain,Guia de isora,Sociedad cooperativa agricola nuestra senora de la paz,Vegetables,,
Poland,Koniusza,Amplus bucki skrzydlewski sotwin spolka jawna,Vegetables,,
France,Maizey,Sarl marchal,Vegetables,,
France,Ille sur tet,Sarl galigne primeurs,Vegetables,,
Spain,Barcelona,Llaurado rodes maria teresa,Vegetables,,
France,Villiers herbisse,Sarl des hauts de villiers,Vegetables,,
France,Manziat,Renoud grappin,Vegetables,,
Poland,Skierniewice,Bakor international ltd sp z o o,Vegetables,,
France,Compans,Riche sarl,Vegetables,,
Spain,El ejido,Frutas escobi sat al0016 opch 741,Vegetables,,
France,Paimpol,Societe d'exploitation des etablissements marcel libouban,Vegetables,,
Spain,Cox,Citricos cox s. a. t.,Vegetables,,
Spain,Roquetas de mar,Frutas playa sat n al005,Vegetables,,
Spain,Sanlucar de barrameda,Cooperativa agraria virgen del rocio,Vegetables,,
Spain,San juan de aznalfarache,Dalsur sl,Vegetables,,
Spain,Montalban de cordoba,Vaquero ortiz manuel,Vegetables,,
Spain,Gijon,Fruteros asturianos sa,Vegetables,,
Netherlands,Oosterhout gem nijmegen,Evers specials b.v.,Vegetables,,
France,Ille sur tet,Sarl galigne primeurs,Vegetables,,
Spain,Pinos puente,Neparola sociedad limitada.,Vegetables,,
France,Les brouzils,Servilegume sarl,Vegetables,,
Spain,Conil de la frontera,Sdad coop agricola nuestra senora de las virtudes,Vegetables,,
France,Obenheim,Choucroute du rhin roger karst sas,Vegetables,,
Spain,Guia de isora,Sociedad cooperativa agricola nuestra senora de la paz,Vegetables,,
Poland,Koniusza,Amplus bucki skrzydlewski sotwin spolka jawna,Vegetables,,
France,Maizey,Sarl marchal,Vegetables,,
Spain,Barcelona,Llaurado rodes maria teresa,Vegetables,,
Spain,Gijon,Fruteros asturianos sa,Vegetables,,
France,Villiers herbisse,Sarl des hauts de villiers,Vegetables,,
France,Manziat,Renoud grappin,Vegetables,,
Poland,Skierniewice,Bakor international ltd sp z o o,Vegetables,,
Spain,El ejido,Frutas escobi sat al0016 opch 741,Vegetables,,
France,Paimpol,Societe d'exploitation des etablissements marcel libouban,Vegetables,,
Spain,Cox,Citricos cox s. a. t.,Vegetables,,
Spain,Daya nueva,Eco spain gomez garcia sl,Vegetables,,
Spain,Barcelona,Verduras de verdad,Vegetables,,
Spain,Tornabous,Fruits-casany-cornellana s.l.,Vegetables,,
Spain,Lorqui,Sdad coop agraria los valientes o.p.f.h. 606,Vegetables,,
Spain,Igualada,Frutas mendez y compania sa,Vegetables,,
Spain,Pinos puente,Neparola sociedad limitada.,Vegetables,,
Spain,Cantillana,Naranjales del guadalquivir sca,Vegetables,,
Turkey,Mersin,Toyasa tarim urunleri,Vegetables,36.7999,34.6342
Spain,Santa cruz de tenerife,Norberto,Vegetables,,
Spain,A coruña,Frutas del fraile s.a.,Vegetables,,
Spain,A coruna,Froitonoso scl,Vegetables,,
France,St alban,Etablissements le jannou,Vegetables,,
Spain,A coruña,Naranjas ibañez sl,Vegetables,,
Spain,Illar,Albentillas s coop and,Vegetables,,
France,Les brouzils,Servilegume sarl,Vegetables,,
France,Obenheim,Choucroute du rhin roger karst sas,Vegetables,,
Spain,Guia de isora,Sociedad cooperativa agricola nuestra senora de la paz,Vegetables,,
Poland,Koniusza,Amplus bucki skrzydlewski sotwin spolka jawna,Vegetables,,
France,Maizey,Sarl marchal,Vegetables,,
France,Moissac,Socaprim,Vegetables,,
France,Perpignan,Union des cooperatives agricoles des fruits et legumes,Vegetables,42.6982,2.88748
Netherlands,Warmenhuizen,Vezet b.v.,Vegetables,,
Spain,Valencia,Agrofresh export consortium s.l.,Vegetables,39.4689,-0.37686
Turkey,Antalya,Gold fresh gida,Vegetables,36.879,30.7092
Spain,A coruña,Frutas rios s.l.,Vegetables,,
Poland,Krzeszowice,Produkcja i hodowla roslin ogrodniczych           sp. z o.o.,Vegetables,,
Spain,Sant joan d'alacant,Saleman s a,Vegetables,,
Spain,Ocaña,Hermanos vidal sl,Vegetables,,
France,Rochefort,Pons primeurs,Vegetables,,
France,Mison,Samuel et fils,Vegetables,,
Spain,Roquetas de mar almeria,Dismerfruit.sl,Vegetables,,
Spain,Baena,Hermanos ordoñez jurado sa,Vegetables,,
Spain,Tornabous,Fruits-casany-cornellana s.l.,Vegetables,,
Spain,Orihuela,Productos hortofruticolas carrus sl,Vegetables,38.0817,-0.94487
Spain,Lorqui,Sdad coop agraria los valientes o.p.f.h. 606,Vegetables,,
Spain,Barcelona,Verduras de verdad,Vegetables,,
Germany,Würzburg,Schraud & baunach gmbh obst gemüse südfrüchte,Vegetables,,
France,Marseille,Gephi,Vegetables,43.2934,5.37132
Netherlands,Rijnsburg,W. heemskerk b.v.,Vegetables,,
France,Marseille,Brousse vergez,Vegetables,43.2934,5.37132
Spain,El ejido,Union de agricultores sa,Vegetables,,
Spain,Torre-pacheco,Gregal sociedad cooperativa,Vegetables,,
France,Maurepas,Ste beillot,Vegetables,,
Germany,Bad marienberg,Goltera gmbh & co. kg.,Vegetables,,
Spain,La mojonera,Ferva sociedad agraria de transformacion,Vegetables,,
France,Chevilly larue,S.a. mighirian freres,Vegetables,,
Spain,Laredo,Ocoex de martinez nates sl,Vegetables,,
France,St laurent blangy,Rosello et fils,Vegetables,,
France,Saint malo,Ets lemoulec,Vegetables,,
Poland,Warszawa,Pol - mar sp. z o.o.,Vegetables,,
Spain,Gualchos,Eurocastell sat,Vegetables,,
Poland,Poznan,Wielkopolska gildia rolno - ogrodnicza s.a.,Vegetables,,
France,Perpignan,Union des cooperatives agricoles des fruits et legumes,Vegetables,42.6982,2.88748
Turkey,Istanbul,Metin zafer pazarlama ve dis ticaret ltd sti,Vegetables,41.062,28.9888
Netherlands,Etten-leur,S.v.z. international b.v.,Vegetables,,
France,Avignon,Provence primeurs,Vegetables,,
Germany,Herbsleben,Mitteldeutsches zwiebelkontor gmbh,Vegetables,,
Germany,Manschnow,Fontana gartenbau gmbh,Vegetables,,
Netherlands,Waddinxveen,Eosta b.v.,Vegetables,,
France,Vert st denis,Mag prim,Vegetables,,
Turkey,Istanbul,Gumuşler tarim,Vegetables,41.062,28.9888
Spain,Les franqueses del valles,Fruits sagarra sa,Vegetables,,
Spain,Puig,Frutas cerdan sa,Vegetables,,
Netherlands,Erica,Polman b.v.,Vegetables,,
Poland,Grojec,Pol agro spolka akcyjna mazowieckie zaklady przetworstwa rolno spozywczego,Vegetables,,
Germany,Würzburg,Schraud & baunach gmbh obst gemüse südfrüchte,Vegetables,,
Spain,Alcantarilla,Martinez badia s.l.,Vegetables,,
France,St girons,Despujols primeurs,Vegetables,,
Belgium,Hasselt,Eden,Vegetables,,
France,Mereville,J.c. coisnon sarl,Vegetables,,
Poland,Nowe bzesko,Nowak-vegetables,Vegetables,,
Turkey,Bursa,Perseason domestic&&foreign trade,Vegetables,,
Turkey,Tokat,Guryildiz tarimsal pazarlama ltd.sti.,Vegetables,,
France,Beziers,Ste  dolsa fruits,Vegetables,,
Netherlands,Rijnsburg,W. heemskerk b.v.,Vegetables,,
Spain,Madrid,Agraz sa,Vegetables,40.4196,-3.69196
Germany,Berlin,Fruchthof berlin verwaltungsgenossenschaft eg,Vegetables,,
Germany,Reichenau,Reichenau-gemüse-vertriebs eg,Vegetables,,
France,Perpignan,Union des cooperatives agricoles des fruits et legumes,Vegetables,42.6982,2.88748
Netherlands,Warmenhuizen,Vezet b.v.,Vegetables,,
Spain,Barcelona,Frutas y hortalizas flores sl,Vegetables,,
France,Rungis cedex,Morfaux,Vegetables,48.7492,2.35141
France,Graces,Breizh primeurs,Vegetables,,
Poland,Siechnice,Przedsiebiorstwo produkcji ogrodniczej siechnice sp. z o.o.,Vegetables,,
Spain,Fuente alamo de murcia,Fruca marketing sl,Vegetables,,
Poland,Warszawa,Pol - mar sp. z o.o.,Vegetables,,
France,St laurent blangy,Rosello et fils,Vegetables,,
Poland,Ozarow mazowiecki,Rolnicza spoldzielnia produkcyjna w duchnicach,Vegetables,,
Spain,Les franqueses del valles,Fruits sagarra sa,Vegetables,,
Spain,Almazora,Verdimed sa,Vegetables,39.4848,-0.37096
France,Maurepas,Ste beillot,Vegetables,,
France,Corbas,Ekval primeurs,Vegetables,,
Netherlands,Waddinxveen,Eosta b.v.,Vegetables,,
France,Vert st denis,Mag prim,Vegetables,,
France,Taule,Mein gwen armor services,Vegetables,,
Netherlands,Zundert,Ardo b.v.,Vegetables,,
Spain,Alcantarilla,Martinez badia s.l.,Vegetables,,
France,Rungis cedex,Del gaudio group,Vegetables,48.7492,2.35141
Germany,Frankfurt,Steinmetz & keller gmbh,Vegetables,,
France,Vron,Ste de moismont,Vegetables,,
Poland,Krakow,Consorfrut polska sp. z o.o.,Vegetables,50.0605,19.9324
France,Tours,Estivin logistique services,Vegetables,,
Spain,Barcelona,Frutas lucas sa,Vegetables,,
Peru,Miraflores,"Tico greens, sac",Vegetables,,
Spain,Puig,Angel teresa hermanos sa,Vegetables,,
France,Corbas,Primeurs du sud est,Vegetables,,
Netherlands,Ridderkerk,Zoutewelle import b.v.,Vegetables,,
France,Marignac,Royal saveurs sas,Vegetables,,
France,St julien de concelles,Nanteurop fl,Vegetables,,
Spain,Almeria,Sol del cabo de gata,Vegetables,,
Poland,Nowy sacz,Przedsiebiorstwo produkcyjno uslugowo handlowe polmex sp z o o,Vegetables,49.621,20.7002
Germany,Konstanz,Fruchthof konstanz gmbh,Vegetables,,
France,Sanzey,Scea le jardin des chenevières,Vegetables,,
Netherlands,Lierop,Funghi farms,Vegetables,,
Spain,Sevilla,General fruit sl,Vegetables,37.3879,-6.00197
France,Graces,Breizh primeurs,Vegetables,,
Germany,Herbsleben,Mitteldeutsches zwiebelkontor gmbh,Vegetables,,
Spain,Dúrcal(granada),"Cebestur,s.l.",Vegetables,,
France,St julien de concelles,Nanteurop fl,Vegetables,,
Germany,Konstanz,Fruchthof konstanz gmbh,Vegetables,,
Germany,Straelen,Peter sprünken,Vegetables,,
Netherlands,Eindhoven,Kooktijd broccoli,Vegetables,,
France,Vron,Ste de moismont,Vegetables,,
Belgium,Gerpinnes,Agrisert,Vegetables,,
Germany,Bad hersfeld,Früchte herbst vertriebs gmbh&co.kg,Vegetables,,
France,Labatut,Prim land,Vegetables,,
Spain,Huesca,Distribuciones correas s.l.,Vegetables,,
Belgium,Antwerpen,Vers d'anvers,Vegetables,,
Poland,Kocierzew,Agro tfc,Vegetables,,
Germany,Stuttgart,Andretta fruchtimport gmbh,Vegetables,,
Spain,Barcelona,Frutas lucas sa,Vegetables,,
Germany,Frankfurt,Steinmetz & keller gmbh,Vegetables,,
France,Marignac,Royal saveurs sas,Vegetables,,
Belgium,Hasselt,Alva,Vegetables,,
France,Perpignan,Sarl holding camilor,Vegetables,42.6982,2.88748
Morocco,Fes,Agrolam,Vegetables,,
Spain,Valencia,Fruit rt,Vegetables,39.4689,-0.37686
Greece,Athens,Zellas trading company,Vegetables,37.9761,23.7364
France,Rungis cedex,Del gaudio group,Vegetables,48.7492,2.35141
Belgium,Antwerpen,Fruithof primeurs,Vegetables,,
Belgium,Sint-katelijne-waver,Van dijk foods,Vegetables,,
Spain,Ciudad real,Agrotorimena s.l.,Vegetables,,
Belgium,Sint-katelijne-waver,Vegromix,Vegetables,,
Belgium,Wolvertem,Lathouwers & co,Vegetables,,
France,Limas,Lombardini france,Vegetables,,
Peru,Lima,Herlex sac,Vegetables,-12.0561,-77.0268
Belgium,Sint-katelijne-waver,Univeg,Vegetables,,
France,Villejuif,Samia marceau,Vegetables,,
Spain,Sangonera la verde,"Manipulados nicola, sl",Vegetables,,
Spain,Valencia,Mengis export sl,Vegetables,39.4689,-0.37686
France,Contres,Gaec touchain rouballay,Vegetables,,
Spain,Fustiñana,Cebollas marchite,Vegetables,,
Netherlands,Venlo,Klaas & co,Vegetables,,
Germany,Frankfurt,Steinmetz & keller gmbh,Vegetables,,
Netherlands,Eindhoven,Kooktijd broccoli,Vegetables,,
Poland,Nowy sacz,Przedsiebiorstwo produkcyjno uslugowo handlowe polmex sp z o o,Vegetables,49.621,20.7002
Netherlands,Brielle,Tuinderij vers b.v.,Vegetables,,
Germany,Vogtsburg,O g s obst- und gemüsevertrieb südbaden gmbh,Vegetables,,
Spain,Puig,Angel teresa hermanos sa,Vegetables,,
Spain,Barcelona,Frutas lucas sa,Vegetables,,
France,Tours,Estivin logistique services,Vegetables,,
France,Vron,Ste de moismont,Vegetables,,
Poland,Błonie,Good fruit,Vegetables,,
Spain,Paradas,Aloe de veras,Vegetables,,
Belgium,Antwerpen,Vers aan huis geleverd,Vegetables,,
Belgium,Aalst,Guy de winne,Vegetables,,
Belgium,Knokke,Fruitpaleis,Vegetables,,
Belgium,Antwerpen,Fruithof primeurs,Vegetables,,
Belgium,Hoogstraten,Veiling hoogstraten,Vegetables,,
Belgium,Bavikhove,Champignons lesage,Vegetables,,
Belgium,Ternat,Etablissements van damme,Vegetables,,
Spain,Vícar-almería,Iberand world market sl,Vegetables,,
Peru,Lima,Herlex sac,Vegetables,-12.0561,-77.0268
Belgium,Rumst,Witters,Vegetables,,
Belgium,Antwerpen,Sourz foods,Vegetables,,
France,Villejuif,Samia marceau,Vegetables,,
Belgium,Sint-katelijne-waver,Van dijk foods,Vegetables,,
Belgium,Sint-katelijne-waver,Univeg,Vegetables,,
Spain,Mataró,Frutadomicilio,Vegetables,,
Belgium,Sint-katelijne-waver,Vegromix,Vegetables,,
Spain,Fustiñana,Cebollas marchite,Vegetables,,
Belgium,Wolvertem,Lathouwers & co,Vegetables,,
Spain,Valencia,Mengis export sl,Vegetables,39.4689,-0.37686
Poland,Bronisze,Imperium. grupa producentow warzyw,Vegetables,,
Germany,Hamburg,Port international fruit gmbh,Vegetables,,
Belgium,Bruxelles,Ringoot fruit,Vegetables,50.8444,4.35609
Greece,Ierapetra,Agroterra,Vegetables,,
Germany,Delmenhorst,Gärtnerhof sandhausen martin clausen und susanne niemeck gbr,Vegetables,,
Belgium,Oostrozebeke,Braecke trading company,Vegetables,,
France,Lille,Mora freres sa,Vegetables,,
Italy,Sermide,Pavani ortofrutticoli snc,Vegetables,,
Germany,Stuttgart,Wilhelm röser gmbh,Vegetables,,
Belgium,Rumbeke,Bovero trans,Vegetables,,
Poland,Błonie,Good fruit,Vegetables,,
Germany,Duisburg,Chiquita deutschland gmbh,Vegetables,,
Netherlands,Stramproy,Oakfield champignons,Vegetables,,
Germany,Sassenberg,Kreienbaum gmbh,Vegetables,,
Germany,Bienenbüttel,Gärtnerhof bienenbüttel gmbh,Vegetables,,
France,Noves,Producteur du sud,Vegetables,,
Spain,Jerez de la frontera,"Ansar, sa",Vegetables,,
Belgium,Oostende,Achiel primeurs,Vegetables,,
Belgium,Pittem,Dv fresh,Vegetables,,
Belgium,Onze-lieve-vrouw-waver,Bejo zaden - belgium,Vegetables,,
France,Lessay,Florette soleco,Vegetables,,
Belgium,Deinze,De meyer & co,Vegetables,,
Spain,El ejido - almería,Ejidomar,Vegetables,,
Belgium,Borgloon,Boussier j.,Vegetables,,
Belgium,Brussel,Vds-food,Vegetables,,
France,Sainte-genevieve,Ets gosselin,Vegetables,,
France,Saint-benoît-sur-loire,Rocal,Vegetables,,
Belgium,Sint-katelijne-waver,Aartsenfruit,Vegetables,,
Belgium,Bruxelles,Maison amoroso,Vegetables,50.8444,4.35609
Belgium,Sint-katelijne-waver,Belorta,Vegetables,,
Spain,Sanchonuño-segovia,Precocinados el campo,Vegetables,,
Germany,Löbnitz,Agrarprodukte löbnitz gmbh,Vegetables,,
Germany,Everswinkel,Sperli gmbh,Vegetables,,
Germany,Rheine,C. v. schoonhoven+sohn gmbh & co. kg,Vegetables,,
Germany,Stuttgart,Gemüsering gmbh  & co. kg,Vegetables,,
Spain,La cañada de san urbano-almería,Casi soc. coop. san isidro,Vegetables,,
Germany,Hamburg,Macalea gmbh & co. kg,Vegetables,,
Germany,Duisburg,Univeg duisburg gmbh,Vegetables,,
Greece,Serres,Natural farming products dimitris kokala,Vegetables,,
Italy,Vittoria,Vittoria tomatoes soc.coop.agr.,Vegetables,,
Spain,El raal,Hortalizas jumarsan sl,Vegetables,,
Turkey,Antalya,Antfresh,Vegetables,36.879,30.7092
Belgium,Sint-katelijne-waver,Ceulemans slacenter,Vegetables,,
Belgium,Geel,Euro gijbels,Vegetables,,
France,Rochefort,La ferme a jules,Vegetables,,
France,Paimpol,Sa jacob,Vegetables,,
Spain,Dolores de pacheco,Agromediterránea hortofrutícola s.l.,Vegetables,,
Netherlands,America,Van dijck groenteproducties,Vegetables,,
France,La-chevroliere,Oceane sca,Vegetables,,
France,Saint-laurent-blangy cedex,Sas groupe perle du nord,Vegetables,,
Belgium,Sint-katelijne-waver,Keirsmaekers en zoon wdk,Vegetables,,
Belgium,Rijkevorsel,Stoffels,Vegetables,,
Belgium,Zelzate,K&f de pauw,Vegetables,,
Spain,Almeria,Ibansa bio sl,Vegetables,,
Belgium,Bruxelles,Exofi fresh market,Vegetables,50.8444,4.35609
Greece,Renti,Proestos eisagoges eksagoges agrotikon proionton ike,Vegetables,,
Egypt,Elayat,3a export,Vegetables,,
Egypt,Elayat,3a export,Vegetables,,
Turkey,Antalya,Albi ltd antalya turkey,Vegetables,36.879,30.7092
Turkey,Antalya,Albi ltd antalya turkey,Vegetables,36.879,30.7092
Egypt,Cairo,Egyfarm,Vegetables,30.0443,31.2353
Spain,El ejido-almería,Berja frutas,Vegetables,,
Egypt,Alexandria,Tradingisland,Vegetables,31.2105,29.9125
Greece,Chania,M&b international,Vegetables,,
Netherlands,Berkel en rodenrijs,Freshchoi,Vegetables,,
Poland,Krakow,Artur & rohit polska sp. z o.o.,Vegetables,50.0605,19.9324
Egypt,Cairo,Centre egyptien de legumes et fruits,Vegetables,30.0443,31.2353
Egypt,Alexandria,El rowad corporation,Vegetables,31.2105,29.9125
Spain,Lorca-murcia,Unexport,Vegetables,,
Spain,Cabezo de torres-murcia,Hijos de joaquín rodríguez sl,Vegetables,,
Egypt,6 october city,Green town,Vegetables,,
Turkey,Istanbul,Zakaryayev group,Vegetables,41.062,28.9888
Turkey,Antalya,Nirvana export,Vegetables,36.879,30.7092
